web-scraper-order,description_raw,price_raw,mileage_raw,fuel_type_raw,location_raw,price,mileage,fuel_type_Diesel,price_cat,mileage_cat,lat,lon
1733470796-1,MERCEDES-BENZ Camper,CHF 15'900.–,265'000 km,Diesel,"Mittelstrasse 38, 3613 Steffisburg",15900,265000,1,0 - 19999,mid-high,46.767906188964844,7.615882396697998
1733470799-2,CARADO I 449 Édition 15 Fiat Capron 169L/1449,CHF 71'900.–,14'000 km,Diesel,"Zone industrielle Les Portettes 2c, 1312 Eclépens",71900,14000,1,50000 - 99999,low,46.655277252197266,6.553426742553711
1733470801-3,DETHLEFFS Fiat Ducato,CHF 37'800.–,90'000 km,Diesel,"Rte du St-Bernard 8, 1937 Orsières",37800,90000,1,20000 - 49999,low-mid,46.03584671020508,7.146042823791504
1733470805-4,FIAT Euro Master Wohnmobil,CHF 19'900.–,187'236 km,Diesel,"Badenerstrasse 84, 8952 Schlieren",19900,187236,1,0 - 19999,mid,47.39728546142578,8.434126853942871
1733470807-5,VW T6.1 California 2.0 TDI Ocean Edition Liberty 4Motion,CHF 84'500.–,16'500 km,Diesel,8852 Altendorf,84500,16500,1,50000 - 99999,low,47.16980743408203,8.801252365112305
1733470809-6,"VW T6.1 Knaus Tourer Van 500 MW, MEGA Ausstattung, EUROPREISVORTEIL !!! 635kg Zuladung",CHF 69'900.–,11'000 km,Diesel,8852 Altendorf,69900,11000,1,50000 - 99999,low,47.16980743408203,8.801252365112305
1733470812-7,VW T6.1 California 2.0 TDI Ocean Liberty,CHF 56'500.–,45'000 km,Diesel,"Güterstrasse 37, 9444 Diepoldsau",56500,45000,1,50000 - 99999,low,47.39250183105469,9.650969505310059
1733470815-8,HYMER BMC 580-I,CHF 115'800.–,12'200 km,Diesel,"Büelhalde 4, 8317 Tagelswangen",115800,12200,1,100000 - 199999,low,47.42753982543945,8.673209190368652
1733470818-9,VW T6 California 2.0 TDI BULLI Beach Edition 4Motion,CHF 51'900.–,83'000 km,Diesel,"Birmensdorferstrasse 18, 8902 Urdorf",51900,83000,1,50000 - 99999,low-mid,47.39269256591797,8.41797161102295
1733470820-10,MERCEDES-BENZ Marco Polo 250 d 7G-Tronic,CHF 49'900.–,113'000 km,Diesel,"Neumatt 10, 4626 Niederbuchsiten",49900,113000,1,20000 - 49999,mid,47.2994270324707,7.768882751464844
1733470825-12,FORD Nugget,CHF 49'900.–,23'500 km,Diesel,"Hardstrasse 78, 4657 Dulliken",49900,23500,1,20000 - 49999,low,47.349239349365234,7.9577460289001465
1733470830-13,FIAT ***  Pilote Aventura T670 - Fiat Ducato 2.3 131PS ***,CHF 28'900.–,140'000 km,Diesel,"Kriesbachstrasse 7, 8304 Wallisellen",28900,140000,1,20000 - 49999,mid,47.409698486328125,8.61287784576416
1733470834-15,FIAT Trigano granduca 64,CHF 15'999.–,105'000 km,Diesel,2556 Schwadernau,15999,105000,1,0 - 19999,mid,47.11965560913086,7.325146675109863
1733470839-17,VW T4,CHF 6'800.–,241'912 km,Benzin,"Schachenstrasse 8, 5014 Gretzenbach",6800,241912,0,0 - 19999,mid-high,47.359962463378906,7.9829511642456055
1733470842-18,FIAT *** FAMILIEN WOHNMOBIL - MCLOUIS ALKOVEN - KAJÜTENBETTEN - KLIMA - TEMPOMAT  ***,CHF 28'700.–,86'000 km,Diesel,"Kriesbachstrasse 7, 8304 Wallisellen",28700,86000,1,20000 - 49999,low-mid,47.409698486328125,8.61287784576416
1733470849-21,FIAT Ducato,CHF 11'800.–,215'456 km,Diesel,"Schachenstrasse 8, 5014 Gretzenbach",11800,215456,1,0 - 19999,mid-high,47.15525436401367,7.330783367156982
1733470851-22,VW Typ 2 / Reimo,CHF 14'900.–,152'000 km,Diesel,"Industriestrasse 7, 2553 Safnern",14900,152000,1,0 - 19999,mid,47.382022857666016,8.666350364685059
1733470858-25,VW T6.1 California 2.0 TDI Ocean Liberty,CHF 58'890.–,16'800 km,Diesel,"St. Gallerstrasse 99, 9032 Engelburg",58890,16800,1,50000 - 99999,low,46.73106002807617,6.534222602844238
1733470860-26,MERCEDES-BENZ Marco Polo Horizon 250 d 4Matic 7G-Tronic,CHF 55'900.–,79'249 km,Diesel,"Brühlmatten 7 , ( Industriezone Brühl ), 4800 Zofingen",55900,79249,1,50000 - 99999,low-mid,46.82259750366211,7.301876544952393
1733470863-27,BÜRSTNER,CHF 39'990.–,69'980 km,Diesel,1350 Orbe,39990,69980,1,20000 - 49999,low-mid,47.18526840209961,7.377481460571289
1733470867-29,PEUGEOT BOXER,CHF 6'000.–,213'900 km,Diesel,"Solothurnstrasse 75, 2543 Lengnau",6000,213900,1,0 - 19999,mid-high,47.409698486328125,8.61287784576416
1733470870-30,PEUGEOT BOXER,CHF 5'999.–,295'100 km,Diesel,"Hauptstrasse 92 a, 9430 St.Margrethen",5999,295100,1,0 - 19999,mid-high,47.52214813232422,7.672452449798584
1733470872-31,WESTFALIA *** .BIG NUGGET - Ford Transit 2.2 TDCi - DUSCHE - WC -  ***,CHF 14'700.–,290'000 km,Diesel,"Kriesbachstrasse 7, 8304 Wallisellen",14700,290000,1,0 - 19999,mid-high,47.525123596191406,8.323613166809082
1733470880-33,MERCEDES-BENZ Marco Polo 250 d  4M A,CHF 78'900.–,15'000 km,Diesel,"Güterstrasse 99, 4133 Pratteln",78900,15000,1,50000 - 99999,low,47.11965560913086,7.325146675109863
1733470882-34,VW Grand California 600 2.0 BI-TDI,CHF 69'000.–,12'000 km,Diesel,"Landstrasse 62, 5426 Lengnau",69000,12000,1,50000 - 99999,low,47.45178985595703,8.444846153259277
1733470887-36,VW Original VANAGON CAMPER Automat Hubdach küche,CHF 7'700.–,125'000 km,Benzin,2556 Schwadernau,7700,125000,0,0 - 19999,mid,47.5765380859375,8.314477920532227
1733470889-37,MERCEDES-BENZ 316 CDI,CHF 8'600.–,223'000 km,Diesel,"Riedackerweg 14, 8107 Buchs",8600,223000,1,0 - 19999,mid-high,46.774803161621094,7.615665435791016
1733470892-38,PEUGEOT Leichter Mototwagen,CHF 3'500.–,175'500 km,Diesel,"Kantonsstrasse 331, 3900 Gamsen",3500,175500,1,0 - 19999,mid,47.47664260864258,8.702418327331543
1733470895-39,CITROEN Wohnmobil,CHF 39'300.–,110'000 km,Diesel,"Zürcherstrasse 42, 5330 Bad Zurzach",39300,110000,1,20000 - 49999,mid,46.597469329833984,6.542710781097412
1733470899-40,NIESMANN + BISCHOFF iSmove 6.9 E,CHF 109'000.–,25'300 km,Diesel,"Bernstrasse 115, 3613 Steffisburg",109000,25300,1,100000 - 199999,low,47.54833221435547,8.849271774291992
1733470901-41,FIAT Adria Sun Living A70DK - ab MFK & Gasprüfung,CHF 49'900.–,20'552 km,Diesel,"Steigstrasse 26, 8406 Winterthur",49900,20552,1,20000 - 49999,low,47.523582458496094,7.711702823638916
1733470904-42,IVECO 35.10 turbo daily,CHF 3'900.–,192'000 km,Diesel,"Route de Sullens 9, 1303 Penthaz VD",3900,192000,1,0 - 19999,mid,47.272743225097656,8.43922233581543
1733470908-44,ADRIA Twin Sports 640 SGX (A256),CHF 88'900.–,10'000 km,Diesel,"Wannenweg 1, 4133 Pratteln",88900,10000,1,50000 - 99999,low,47.40155029296875,8.43859577178955
1733470918-48,SUN LIVING S65L,CHF 53'900.–,19'500 km,Diesel,"ROUTE DU GRANDVAL 10, 2744 BELPRAHON/MOUTIER",53900,19500,1,50000 - 99999,low,47.441410064697266,8.616898536682129
1733470922-50,MAURER Starliner 20,CHF 59'900.–,38'000 km,Diesel,"Lerchenweg 14. Oder Läufelfingen ramsachstrasse 26, 4538 Oberbipp",59900,38000,1,50000 - 99999,low,47.523582458496094,7.711702823638916
1733470933-53,FIAT 1.5Q 2.3TDI,CHF 5'500.–,119'000 km,Diesel,"Vorbuchenstrasse 13, 8303 Bassersdorf",5500,119000,1,0 - 19999,mid,47.08992385864258,8.253633499145508
1733470938-55,SUN LIVING S-SERIES S70 DF (A276),CHF 71'900.–,14'500 km,Diesel,"Wannenweg 1, 4133 Pratteln",71900,14500,1,50000 - 99999,low,47.54833221435547,8.849271774291992
1733470940-56,FIAT 18 2.8TD,CHF 11'300.–,96'000 km,Diesel,"Murtenstrasse 59, 1784 Courtepin (Kanton Freiburg)",11300,96000,1,0 - 19999,low-mid,47.255882263183594,8.845612525939941
1733470942-57,MERCEDES-BENZ Hymer,CHF 19'870.–,51'000 km,Diesel,"Bassersdorferstrasse 117, 8302 Kloten",19870,51000,1,0 - 19999,low-mid,47.50075149536133,8.767881393432617
1733470945-58,VW T5 2.5 TDI PD 4MOTION Camper Wohnmobil,CHF 21'800.–,184'000 km,Diesel,"Buzibachstrasse 47, 6023 Rothenburg",21800,184000,1,20000 - 49999,mid,47.25289535522461,9.001060485839844
1733470949-60,GLOBECAR,CHF 42'500.–,16'000 km,Diesel,"Lerchenweg 14. Oder Läufelfingen ramsachstrasse 26, 4538 Oberbipp",42500,16000,1,20000 - 49999,low,46.60051727294922,6.5255560874938965
1733470952-61,ROLLER TEAM Kronos 284 TL20,CHF 59'890.–,34'700 km,Diesel,"Hauptstrasse 70, 8546 Islikon",59890,34700,1,50000 - 99999,low,47.23344039916992,7.90991735458374
1733470956-63,VW California Oce. Lib 4M A,CHF 58'900.–,42'300 km,Diesel,"Ohrbühlstrasse 37, 8409 Winterthur",58900,42300,1,50000 - 99999,low,46.73106002807617,6.534222602844238
1733470958-64,VW Typ 2 Reimo Hochdach,CHF 19'900.–,169'580 km,Benzin,"Breitenstrasse 1, 8725 Gebertingen",19900,169580,0,0 - 19999,mid,47.31846237182617,9.172804832458496
1733470961-65,VW T6.1 California 2.0 TDI Ocean Liberty 4Motion,CHF 71'900.–,21'000 km,Diesel,"St. Gallerstrasse 99, 9032 Engelburg",71900,21000,1,50000 - 99999,low,47.09516906738281,7.561470985412598
1733470963-66,FIAT Pilote G740 C,CHF 72'900.–,36'000 km,Diesel,"Rte de Gollion 15, 1305 Penthalaz",72900,36000,1,50000 - 99999,low,47.54833221435547,8.849271774291992
1733470965-67,LAIKA,CHF 23'900.–,163'290 km,Diesel,"Tannbachstrasse 2, 6264 Pfaffnau",23900,163290,1,20000 - 49999,mid,46.965248107910156,8.383917808532715
1733470968-68,VW T4 california,CHF 17'000.–,300'000 km,Diesel,"schwarzenburgstrasse 844, 3145 Niederscherli-Bern",17000,300000,1,0 - 19999,mid-high,46.955711364746094,9.570183753967285
1733470970-69,CHALLENGER 620,CHF 22'500.–,139'890 km,Diesel,1350 Orbe,22500,139890,1,20000 - 49999,mid,47.382022857666016,8.666350364685059
1733470973-70,DETHLEFFS Fiat 3L Iveco,CHF 59'800.–,57'000 km,Diesel,"Dorf 10, 9127 St. Peterzell",59800,57000,1,50000 - 99999,low-mid,47.523582458496094,7.711702823638916
1733470977-72,ROLLER TEAM Zefiro 285 TL15,CHF 64'890.–,31'300 km,Diesel,"Hauptstrasse 70, 8546 Islikon",64890,31300,1,50000 - 99999,low,46.71854782104492,6.959683418273926
1733470982-73,MERCEDES-BENZ 312D Kaiser,CHF 21'800.–,154'000 km,Diesel,"Rieden 10, 6370 Stans",21800,154000,1,20000 - 49999,mid,46.62849044799805,7.060698986053467
1733470988-75,FIAT i675,CHF 30'000.–,111'000 km,Diesel,"Industriestrasse 6, 8604 Volketswil",30000,111000,1,20000 - 49999,mid,46.8519401550293,6.990228176116943
1733470991-76,SUN LIVING V-SERIES V60 SP TenTop (A245),CHF 65'900.–,22'000 km,Diesel,"Wannenweg 1, 4133 Pratteln",65900,22000,1,50000 - 99999,low,46.82259750366211,7.301876544952393
1733470993-77,FIAT 290 / 14,CHF 4'800.–,151'000 km,Diesel,"Murtenstrasse 59, 1784 Courtepin (Kanton Freiburg)",4800,151000,1,0 - 19999,mid,46.222537994384766,7.293209552764893
1733470995-78,VW T6.1 California 2.0 TDI Ocean Liberty 4Motion,CHF 69'000.–,98'000 km,Diesel,"Route de la Gare 62, 1690 Villaz-St-Pierre",69000,98000,1,50000 - 99999,low-mid,47.18832778930664,7.554986000061035
1733470998-79,VW Cali. BiTDI Oce. Lib 4M A,CHF 79'900.–,12'300 km,Diesel,"Rue de Vuippens 57, 1630 Bulle",79900,12300,1,50000 - 99999,low,47.31846237182617,9.172804832458496
1733471000-80,MERCEDES-BENZ Sprinter 212 D,CHF 7'999.–,40'000 km,Diesel,"schwarzenburgstrasse 844, 3145 Niederscherli-Bern",7999,40000,1,0 - 19999,low,47.54833221435547,8.849271774291992
1733471003-81,FIAT KNAUS célébrât 650meg,CHF 41'900.–,182'000 km,Diesel,"Rue Centrale 7, 1563 Dompierre FR",41900,182000,1,20000 - 49999,mid,46.955711364746094,9.570183753967285
1733471005-82,VW Cali. TDI Bea.Ed. Sp. A,CHF 67'000.–,14'300 km,Diesel,"Spisi 9, 1714 Heitenried",67000,14300,1,50000 - 99999,low,47.31379699707031,8.796833038330078
1733471007-83,FIAT challenger trigano,CHF 17'990.–,224'000 km,Diesel,"Rue Du Levant 21, 1963 Vétroz",17990,224000,1,0 - 19999,mid-high,47.31379699707031,8.796833038330078
1733471010-84,FIAT Ducato 15Q 2.8 JTD,CHF 19'500.–,115'000 km,Diesel,"gewerbestrasse 16, 4562 Biberist",19500,115000,1,0 - 19999,mid,47.070011138916016,7.203824520111084
1733471017-86,TOYOTA 4x4 Untersetzung,CHF 34'800.–,16'700 km,Benzin,"Dorf 10, 9127 St. Peterzell",34800,16700,0,20000 - 49999,low,47.070011138916016,7.203824520111084
1733471019-87,ROLLER TEAM Kronos 265 TL7,CHF 62'870.–,38'850 km,Diesel,"Hauptstrasse 70, 8546 Islikon",62870,38850,1,50000 - 99999,low,47.070011138916016,7.203824520111084
1733471023-88,SUNLIGHT Adventure T Ford 680,CHF 68'000.–,20'000 km,Diesel,"Obermühleweg 5, 7302 Landquart",68000,20000,1,50000 - 99999,low,47.03178024291992,8.624926567077637
1733471032-92,VW T4 California,CHF 21'900.–,136'000 km,Diesel,"Burrirain 56a, 2575 Täuffelen",21900,136000,1,20000 - 49999,mid,47.56602096557617,9.091235160827637
1733471037-93,VW transporter,CHF 13'900.–,188'000 km,Diesel,"Rue Centrale 7, 1563 Dompierre FR",13900,188000,1,0 - 19999,mid,47.60587692260742,8.68687629699707
1733471039-94,VW California 4x4 Klima,CHF 25'900.–,179'000 km,Benzin,"Burrirain 56a, 2575 Täuffelen",25900,179000,0,20000 - 49999,mid,47.570777893066406,7.576108455657959
1733471041-95,VW California,CHF 13'500.–,238'500 km,Diesel,"Burrirain 56a, 2575 Täuffelen",13500,238500,1,0 - 19999,mid-high,47.40155029296875,8.43859577178955
1733471044-96,MERCEDES-BENZ Marco Polo Horizon 250 d 4Matic 7G-Tronic,CHF 44'000.–,167'500 km,Diesel,"Riedmattli 5, 6423 Seewen",44000,167500,1,20000 - 49999,mid,47.23579025268555,7.236842155456543
1733471046-97,VW T5 California 2.0 TDI Beach Last Edition,CHF 39'900.–,58'500 km,Diesel,"via ala Campagna, 6593 Cadenazzo",39900,58500,1,20000 - 49999,low-mid,47.31379699707031,8.796833038330078
1733471049-98,CARADO T447 Pro Automat,CHF 78'500.–,12'000 km,Diesel,"Linth-Escherstr. 5a/ 2. OCC Platz Hauptstrasse 61, 8865 Bilten",78500,12000,1,50000 - 99999,low,47.09998321533203,8.672536849975586
1733471051-99,FIAT Camping-car,CHF 8'000.–,95'000 km,Diesel,"Rte d'Autigny 4, 1744 Chénens",8000,95000,1,0 - 19999,low-mid,47.10284423828125,8.376439094543457
1733471053-100,"MERCEDES-BENZ 312D ***mit el. Hubbett(Längsbett), Sondermodel***",CHF 29'900.–,40'000 km,Diesel,"Brunnenwiesenstrasse 8, 8570 Weinfelden",29900,40000,1,20000 - 49999,low,47.54833221435547,8.849271774291992
1733471056-101,DETHLEFFS Just Camp T 6812 EB auf Basis Citroen Jumper,CHF 82'600.–,10'000 km,Diesel,"Gewerbestrasse 1, 8451 Kleinandelfingen",82600,10000,1,50000 - 99999,low,47.47590255737305,9.550376892089844
1733471058-102,VW Westfalia,CHF 14'900.–,119'499 km,Benzin,"Voltastrasse 89, 4056 Basel",14900,119499,0,0 - 19999,mid,47.56113815307617,9.13205337524414
1733471063-104,MERCEDES-BENZ Marco Polo 300 d 4M A,CHF 88'000.–,20'000 km,Diesel,"Goldschlägistrasse 19, 8952 Schlieren",88000,20000,1,50000 - 99999,low,47.31846237182617,9.172804832458496
1733471066-105,FIAT Pössl,CHF 49'900.–,16'000 km,Diesel,"Clos là Outre 28, 2732 Loveresse",49900,16000,1,20000 - 49999,low,47.31846237182617,9.172804832458496
1733471068-106,VW T6.1 California Ocean,CHF 53'900.–,86'223 km,Diesel,"Grubenstrasse 24, 8620 Wetzikon",53900,86223,1,50000 - 99999,low-mid,47.26015853881836,8.858055114746094
1733471071-107,ROLLER TEAM Liv DUO 2024,CHF 64'900.–,25'800 km,Diesel,"Landstrasse 10, 6418 Rothenthurm",64900,25800,1,50000 - 99999,low,46.2071647644043,9.038201332092285
1733471073-108,DETHLEFFS Globebus 11,CHF 39'800.–,43'100 km,Diesel,"Oberfeld 2, 6037 Root",39800,43100,1,20000 - 49999,low,47.39076232910156,8.668862342834473
1733471076-109,ROLLER TEAM 284 M2,CHF 52'890.–,37'700 km,Diesel,"Hauptstrasse 70, 8546 Islikon",52890,37700,1,50000 - 99999,low,47.24024963378906,9.50187873840332
1733471078-110,OPEL Vivaro B 16 CDTi Camper Van,CHF 27'500.–,184'822 km,Diesel,"Buechbergstrasse 10, 9422 Staad SG",27500,184822,1,20000 - 49999,mid,47.36935806274414,8.42248249053955
1733471081-111,FIAT Bürstner T600 Harmony,CHF 21'900.–,128'000 km,Diesel,"Oberfeldstrasse 13, 8570 Weinfelden",21900,128000,1,20000 - 49999,mid,46.25091552734375,7.00229549407959
1733471083-112,MERCEDES-BENZ 310 4x4 Untersetzung,CHF 35'600.–,38'000 km,Benzin,"Dorf 10, 9127 St. Peterzell",35600,38000,0,20000 - 49999,low,47.03029251098633,8.294075012207031
1733471088-113,LAND ROVER DEFENDER 110 TD5 Wohnkabine,CHF 57'900.–,134'000 km,Diesel,"Dorf 10, 9127 St. Peterzell",57900,134000,1,50000 - 99999,mid,47.31846237182617,9.172804832458496
1733471096-116,MIRAGE Fiat Ducato,CHF 27'900.–,129'900 km,Diesel,"Via San Gottardo 106, 6500 Bellinzona",27900,129900,1,20000 - 49999,mid,47.45183181762695,8.701164245605469
1733471099-117,VW T2,CHF 14'600.–,55'043 km,Benzin,"Juchstrasse 25, 8604 Volketswil",14600,55043,0,0 - 19999,low-mid,47.382022857666016,8.666350364685059
1733471103-118,VW Hymer Cape Town  Lady Camper,CHF 35'000.–,207'000 km,Diesel,"Sennwalder str 34, 9465 Salez",35000,207000,1,20000 - 49999,mid-high,47.741600036621094,8.709936141967773
1733471105-119,VW T6.1 California 2.0 Bi-TDI Ocean Liberty 4Motion,CHF 75'500.–,15'500 km,Diesel,"Bergermoosstrasse 10, 8902 Urdorf",75500,15500,1,50000 - 99999,low,47.15397644042969,7.59208869934082
1733471107-120,FORD Challenger 264,CHF 54'900.–,46'500 km,Diesel,"Rte du Grand-St-Bernard 17, 1880 Bex",54900,46500,1,50000 - 99999,low,47.594444274902344,8.948468208312988
1733471113-122,VW T4,CHF 12'900.–,224'569 km,Diesel,"Werkstrasse 4, 6010 Kriens",12900,224569,1,0 - 19999,mid-high,47.54833221435547,8.849271774291992
1733471115-123,IVECO 4x4 Offroader,CHF 34'800.–,11'800 km,Diesel,"Dorf 10, 9127 St. Peterzell",34800,11800,1,20000 - 49999,low,47.31379699707031,8.796833038330078
1733471117-124,MERCEDES-BENZ 311CDI,CHF 10'500.–,203'000 km,Diesel,"Schwarzenburgstrasse 844, 3145 Bern",10500,203000,1,0 - 19999,mid-high,47.414920806884766,8.382509231567383
1733471120-125,MERCEDES-BENZ 316CDI Ahorn Camp M 730,CHF 35'990.–,123'000 km,Diesel,"Hauptstrasse 87-89b & Voreimatt 99, 4492 Tecknau",35990,123000,1,20000 - 49999,mid,47.523582458496094,7.711702823638916
1733471123-126,HYMER Hymermobil,CHF 16'990.–,73'000 km,Diesel,8310 Kemptthal,16990,73000,1,0 - 19999,low-mid,47.60587692260742,8.68687629699707
1733471125-127,HYMER FIAT WLT 3.0M JET/35,CHF 35'990.–,33'000 km,Diesel,"Industriestrasse 6, 8604 Volketswil",35990,33000,1,20000 - 49999,low,47.21744155883789,7.783696174621582
1733471130-129,SUNLIGHT V66 mit Einzelbett!,CHF 59'777.–,42'190 km,Diesel,"Hauptstrasse 216, 4565 Recherswil",59777,42190,1,50000 - 99999,low,47.467018127441406,9.58243179321289
1733471134-130,VW T5 California 2.0 TDI Beach Travel,CHF 28'900.–,129'300 km,Diesel,"Hauptstrasse 3, 8505 Pfyn/TG",28900,129300,1,20000 - 49999,mid,47.31846237182617,9.172804832458496
1733471138-131,DETHLEFFS Just T7052 EB,CHF 59'000.–,19'900 km,Diesel,"Staatsstrasse 49, 9437 Marbach",59000,19900,1,50000 - 99999,low,47.02757263183594,7.242457866668701
1733471143-132,ROLLER TEAM Zefiro 285 TL13,CHF 61'980.–,26'980 km,Diesel,"Hauptstrasse 70, 8546 Islikon",61980,26980,1,50000 - 99999,low,47.040523529052734,8.134263038635254
1733471145-133,"VW Kastenwagen mit festem Hochdach, großem Fahrkomfort und Dusche",CHF 53'900.–,64'250 km,Diesel,"Grubenstrasse 24, 8620 Wetzikon",53900,64250,1,50000 - 99999,low-mid,47.04475021362305,8.191388130187988
1733471150-135,FIAT Ducato 290/14,CHF 19'900.–,90'900 km,Diesel,"Grubenstrasse 7, 8957 Spreitenbach",19900,90900,1,0 - 19999,low-mid,47.31379699707031,8.796833038330078
1733471152-136,SUN LIVING A-SERIES A75 SL (A248),CHF 76'900.–,20'000 km,Diesel,"Wannenweg 1, 4133 Pratteln",76900,20000,1,50000 - 99999,low,47.31379699707031,8.796833038330078
1733471155-137,KNAUS Sky TI 700 MG auf Basis Fiat Ducato,CHF 54'400.–,39'500 km,Diesel,"Gewerbestrasse 1, 8451 Kleinandelfingen",54400,39500,1,50000 - 99999,low,47.31379699707031,8.796833038330078
1733471157-138,MERCEDES-BENZ Marco Polo 220 d  Trend Automat,CHF 62'800.–,12'900 km,Diesel,"Kühlhausstrasse 2, 4900 Langenthal",62800,12900,1,50000 - 99999,low,47.31379699707031,8.796833038330078
1733471160-139,MERCEDES-BENZ Marco Polo 300 d 4M Automat,CHF 103'900.–,10'000 km,Diesel,"Stauffacherstrasse 145, 3000 Bern 22",103900,10000,1,100000 - 199999,low,47.31379699707031,8.796833038330078
1733471162-140,VW 2.0 TDI MareMonti SURF Camper 5Sitze,CHF 36'900.–,88'000 km,Diesel,"Thalerstrasse 46a, 9424 Rheineck",36900,88000,1,20000 - 49999,low-mid,47.523582458496094,7.711702823638916
1733471165-141,MERCEDES-BENZ Vario 4x4,CHF 43'500.–,29'000 km,Diesel,"Dorf 10, 9127 St. Peterzell",43500,29000,1,20000 - 49999,low,47.467018127441406,9.58243179321289
1733471167-142,VW T6 California 2.0 Bi-TDI Ocean 4Motion,CHF 56'000.–,82'000 km,Diesel,"Gimmerz 54, 3283 Kallnach",56000,82000,1,50000 - 99999,low-mid,47.47590255737305,9.550376892089844
1733471170-143,CONCORDE Centurion 910 LI,CHF 332'000.–,23'000 km,Diesel,"Mittler-Langnau 1, 6105 Schachen LU",332000,23000,1,200000 - 499999,low,47.0927734375,8.318682670593262
1733471175-145,RENAULT MASTER,CHF 28'999.–,138'000 km,Diesel,"Felsenaustrasse 15 / Raschärenstrasse 23, 7000 Chur",28999,138000,1,20000 - 49999,mid,46.73106002807617,6.534222602844238
1733471177-146,"VW T6.1 California Ocean Edition 4Motion Camper mit fester Küche, elektrischem Aufstelldach und Standheizung",CHF 63'900.–,80'164 km,Diesel,"Grubenstrasse 24, 8620 Wetzikon",63900,80164,1,50000 - 99999,low-mid,47.04475021362305,8.191388130187988
1733471185-149,VW T6.1 California Ocean,CHF 54'900.–,86'148 km,Diesel,"Grubenstrasse 24, 8620 Wetzikon",54900,86148,1,50000 - 99999,low-mid,47.741600036621094,8.709936141967773
1733471188-150,VW T6.1 California Beach EDITION_4X4,CHF 59'900.–,63'362 km,Diesel,"Grubenstrasse 24, 8620 Wetzikon",59900,63362,1,50000 - 99999,low-mid,47.54833221435547,8.849271774291992
1733471190-151,SUN LIVING S-SERIES S72 DL (A260),CHF 73'900.–,17'500 km,Diesel,"Wannenweg 1, 4133 Pratteln",73900,17500,1,50000 - 99999,low,47.741600036621094,8.709936141967773
1733471195-152,VW 2.0 TDI 105 PS MareMonti SURF Camper 6Sitze,CHF 36'899.–,72'000 km,Diesel,"Thalerstrasse 46a, 9424 Rheineck",36899,72000,1,20000 - 49999,low-mid,47.23344039916992,7.90991735458374
1733471200-154,VW T6 California 2.0 Bi-TDI Ocean 4Motion,CHF 67'900.–,48'501 km,Diesel,"Buholzstrasse 40, 6032 Emmen",67900,48501,1,50000 - 99999,low,46.20896911621094,9.038769721984863
1733471203-155,VW Cal. BiTDI Oce.Ed.Lib 4MA,CHF 77'899.–,30'000 km,Diesel,"Murtenstrasse 112, 3202 Frauenkappelen  ( Bern)",77899,30000,1,50000 - 99999,low,47.54833221435547,8.849271774291992
1733471205-156,CARADO,CHF 52'500.–,12'890 km,Diesel,1350 Orbe,52500,12890,1,50000 - 99999,low,47.467018127441406,9.58243179321289
1733471210-158,TOYOTA Hiace /  Schlafmobil,CHF 19'999.–,52'500 km,Diesel,"Botzen 14, 8416 Flaach (bei Winterthur)",19999,52500,1,0 - 19999,low-mid,47.25289535522461,9.001060485839844
1733471212-159,FIAT 230/18,CHF 16'500.–,142'984 km,Diesel,"Niderämterstrasse 39, 4657 Dulliken",16500,142984,1,0 - 19999,mid,47.51407241821289,8.693832397460938
1733471215-160,"RAPIDO V62 640 SPEZIAL 2,3 DIESEL 9G-AUTOMAT FIAT DUCATO MJ 160",CHF 62'997.–,21'459 km,Diesel,"Zollstrasse 33, 8240 Thayngen(SH)",62997,21459,1,50000 - 99999,low,47.341331481933594,8.807897567749023
1733471217-161,ROLLER TEAM Livingstone Duo Advance L12,CHF 52'970.–,57'600 km,Diesel,"Hauptstrasse 70, 8546 Islikon",52970,57600,1,50000 - 99999,low-mid,47.0927734375,8.318682670593262
1733471220-162,"CITROEN JUMPY 1,6 HDI DIESEL",CHF 14'997.–,169'985 km,Diesel,"Zollstrasse 33, 8240 Thayngen(SH)",14997,169985,1,0 - 19999,mid,47.38629913330078,8.133002281188965
1733471222-163,DETHLEFFS EG-DF002,CHF 13'900.–,183'000 km,Diesel,"Tannbachstrasse 2, 6264 Pfaffnau",13900,183000,1,0 - 19999,mid,47.458194732666016,8.346111297607422
1733471225-164,ITINEO MB 740 Fiat,CHF 49'990.–,16'000 km,Diesel,"Chemin des Eglantines 6, 1214 Vernier",49990,16000,1,20000 - 49999,low,47.334293365478516,8.798748016357422
1733471228-165,ADRIA TWIN PLUS 640 SLB,CHF 71'190.–,14'000 km,Diesel,"Via San Gottardo 120, 6500 Bellinzona",71190,14000,1,50000 - 99999,low,47.54833221435547,8.849271774291992
1733471230-166,ETRUSCO T6900 SB E1,CHF 66'780.–,14'500 km,Diesel,"Hauptstrasse 70, 8546 Islikon",66780,14500,1,50000 - 99999,low,47.04475021362305,8.191388130187988
1733471232-167,VW VW T6 2.0 TDI MAREMONTI COMFORT CAMPER 5SITZE,CHF 42'900.–,65'000 km,Diesel,"Thalerstrasse 46a, 9424 Rheineck",42900,65000,1,20000 - 49999,low-mid,47.04475021362305,8.191388130187988
1733471235-168,MERCEDES-BENZ Marco Polo 250 d 7G-Tronic,CHF 54'500.–,102'000 km,Diesel,"Il Stutz 15, 7018 Flims Waldhaus",54500,102000,1,50000 - 99999,mid,47.04475021362305,8.191388130187988
1733471237-169,FORD Nugget Trend L1,CHF 58'000.–,21'500 km,Diesel,"Breitenstrasse 1, 8725 Gebertingen",58000,21500,1,50000 - 99999,low,47.04475021362305,8.191388130187988
1733471239-170,RIMOR Evo 95   Längsbetten,CHF 64'900.–,16'000 km,Diesel,"Riedhofstrasse 57, 8408 Winterthur",64900,16000,1,50000 - 99999,low,46.8880729675293,8.614900588989258
1733471242-171,WEINSBERG 631,CHF 21'990.–,82'400 km,Diesel,"Pfäffikerstrasse 28, 8331 Auslikon",21990,82400,1,20000 - 49999,low-mid,47.25289535522461,9.001060485839844
1733471247-172,OPEL VIVARO,CHF 8'900.–,252'672 km,Diesel,"Buholzstrasse 40, 6032 Emmen",8900,252672,1,0 - 19999,mid-high,47.25289535522461,9.001060485839844
1733471250-173,VW T6 California 2.0 Bi-TDI Beach Liberty 4Motion,CHF 33'800.–,192'000 km,Diesel,"Korbackerweg 27, 5502 Hunzenschwil AG",33800,192000,1,20000 - 49999,mid,46.60606384277344,7.072765827178955
1733471252-174,MERCEDES-BENZ Marco Polo 300 d 4M Automat,CHF 76'900.–,60'000 km,Diesel,"Otelfingerstrasse 44, 5430 Wettingen",76900,60000,1,50000 - 99999,low-mid,47.47664260864258,8.702418327331543
1733471255-175,MERCEDES-BENZ Marco Polo 300 d 4M Automat,CHF 89'900.–,27'000 km,Diesel,"Industriestrasse 11, 8620 Wetzikon",89900,27000,1,50000 - 99999,low,47.00143051147461,7.273756980895996
1733471259-176,ETRUSCO V 6.6 SF V1,CHF 56'880.–,25'800 km,Diesel,"Hauptstrasse 70, 8546 Islikon",56880,25800,1,50000 - 99999,low,47.21332931518555,8.564812660217285
1733471261-177,DETHLEFFS Advantage I 7051 EB,CHF 34'900.–,160'999 km,Diesel,"Eistrasse 1, 6102 Malters",34900,160999,1,20000 - 49999,mid,47.467018127441406,9.58243179321289
1733471264-178,SUNLIGHT Capron I69S,CHF 49'900.–,106'000 km,Diesel,"Eistrasse 1, 6102 Malters",49900,106000,1,20000 - 49999,mid,46.838157653808594,6.865045547485352
1733471268-180,DETHLEFFS Trend I 7057DBM,CHF 47'500.–,110'000 km,Diesel,"Eistrasse 1, 6102 Malters",47500,110000,1,20000 - 49999,mid,46.74657440185547,7.642361640930176
1733471271-181,FORD Transit C Nugget 320 L1 2.0 TDCi 185 Aufstelldach,CHF 49'500.–,39'000 km,Diesel,"Grossriedstrasse 13, 6462 Seedorf",49500,39000,1,20000 - 49999,low,46.76424026489258,6.64890193939209
1733471273-182,VW T6 California 2.0 TDI Beach,CHF 34'900.–,153'500 km,Diesel,"Breitenstrasse 1, 8725 Gebertingen",34900,153500,1,20000 - 49999,mid,47.467018127441406,9.58243179321289
1733471275-183,VW Camper Multivan,CHF 42'900.–,104'700 km,Diesel,"Breitenstrasse 1, 8725 Gebertingen",42900,104700,1,20000 - 49999,mid,46.93598937988281,8.275261878967285
1733471278-184,FIAT Ducato 280 / 14,CHF 2'990.–,190'000 km,Diesel,"Route de la Parqueterie 23, 1635 La Tour-de-Trême",2990,190000,1,0 - 19999,mid,46.15255355834961,8.952432632446289
1733471283-186,AHORN Van 620,CHF 51'900.–,36'000 km,Diesel,"Sahlimatte 200, 3036 Detligen",51900,36000,1,50000 - 99999,low,46.15255355834961,8.952432632446289
1733471285-187,MERCEDES-BENZ Sprinter Camper L3 H2,CHF 84'000.–,190'000 km,Diesel,"Ruessenstrasse 11, 6340 Baar",84000,190000,1,50000 - 99999,mid,47.05879211425781,7.230997562408447
1733471290-189,FORD Econoline Van Midway,CHF 9'999.–,125'000 km,Benzin,"La Guérite 60, 1541 Sévaz",9999,125000,0,0 - 19999,mid,46.88613510131836,7.635671138763428
1733471292-190,MERCEDES-BENZ Sprinter CAMPER 413 CDI 4x4,CHF 49'900.–,26'000 km,Diesel,"Via serta 14, 6814 Lamone (Ticino)",49900,26000,1,20000 - 49999,low,47.21744155883789,7.783696174621582
1733471294-191,VW T6 California 2.0 TDI Beach 4Motion,CHF 51'900.–,43'850 km,Diesel,"Staatsstrasse 156, 3626 Hünibach",51900,43850,1,50000 - 99999,low,47.56113815307617,9.13205337524414
1733471300-192,VW T6 California 2.0 TDI Beach Liberty 4Motion,CHF 29'900.–,285'000 km,Diesel,"Route de Lausanne 22, 1400 Yverdon-les-bains",29900,285000,1,20000 - 49999,mid-high,46.20896911621094,9.038769721984863
1733471302-193,VW VW T6 2.0 TDI 150kw 4Motion DSG MareMonti SURF Camper 6Sitze,CHF 45'900.–,16'000 km,Diesel,"Thalerstrasse 46a, 9424 Rheineck",45900,16000,1,20000 - 49999,low,47.52054214477539,8.79157543182373
1733471307-195,BÜRSTNER Argos A 747 Alde Heizung - Anhängerkupplung- Klima,CHF 47'900.–,101'000 km,Diesel,"via san gottardo 38, 6593 cadenazzo",47900,101000,1,20000 - 49999,mid,47.22997283935547,7.653196334838867
1733471310-196,FIAT mit Aufbau zum Ausbauen,CHF 27'880.–,16'000 km,Diesel,"Sinserstrasse 400, 6330 Cham ZG",27880,16000,1,20000 - 49999,low,47.26013946533203,8.240265846252441
1733471312-197,ELNAGH Columbia 111,CHF 13'503.–,191'000 km,Diesel,"via san gottardo 38, 6593 cadenazzo",13503,191000,1,0 - 19999,mid,47.09998321533203,8.672536849975586
1733471315-198,MERCEDES-BENZ 4x4 Larag mit Uniqcab-Aufbau,CHF 79'000.–,73'000 km,Benzin,"Aarbergstrasse 10, 3272 Walperswil",79000,73000,0,50000 - 99999,low-mid,47.60587692260742,8.68687629699707
1733471317-199,CARADO A464,CHF 54'500.–,42'000 km,Diesel,"Linth-Escherstr. 5a/ 2. OCC Platz Hauptstrasse 61, 8865 Bilten",54500,42000,1,50000 - 99999,low,47.37629699707031,8.298477172851562
1733471322-201,MERCEDES-BENZ Marco Polo 300 d 4M Automat,CHF 69'700.–,33'600 km,Diesel,"Kühlhausstrasse 2, 4900 Langenthal",69700,33600,1,50000 - 99999,low,47.612152099609375,9.169289588928223
1733471324-202,FIAT Knaus Querbett mit Heckgarage,CHF 22'900.–,74'220 km,Diesel,"Oberfeldstrasse 13, 8570 Weinfelden",22900,74220,1,20000 - 49999,low-mid,47.60587692260742,8.68687629699707
1733471328-203,ADRIA ACTIVE PRO 2.0,CHF 56'500.–,15'000 km,Diesel,"Via San Gottardo 120, 6500 Bellinzona",56500,15000,1,50000 - 99999,low,47.414127349853516,8.164999961853027
1733471330-204,VW T6.1 California 2.0 TDI Ocean Liberty,CHF 52'900.–,31'000 km,Diesel,"Wiswandstrasse 6, 8542 Wiesendangen",52900,31000,1,50000 - 99999,low,47.36394500732422,9.074725151062012
1733471333-205,MERCEDES-BENZ Marco Polo 250 d  4M Automat,CHF 85'900.–,16'500 km,Diesel,"Stauffacherstrasse 145, 3000 Bern 22",85900,16500,1,50000 - 99999,low,47.527305603027344,9.03041934967041
1733471335-206,ADRIA Sun Living 75 SL,CHF 55'000.–,39'000 km,Diesel,"Unterholz 1c, 3380 Wangen an der Aare",55000,39000,1,50000 - 99999,low,47.45183181762695,8.701164245605469
1733471339-207,VW T5 California 2.0 TDI Beach Last Edition,CHF 31'900.–,134'000 km,Diesel,"Gigennagelstrasse 2, 6287 Aesch LU",31900,134000,1,20000 - 49999,mid,47.45183181762695,8.701164245605469
1733471342-208,ROLLER TEAM 284 HLT,CHF 64'500.–,32'300 km,Diesel,"Landstrasse 10, 6418 Rothenthurm",64500,32300,1,50000 - 99999,low,47.467018127441406,9.58243179321289
1733471345-209,CITROEN TYPE-H Campervan,CHF 79'700.–,24'000 km,Diesel,"Gewerbestrasse 1, 8451 Kleinandelfingen",79700,24000,1,50000 - 99999,low,47.361507415771484,8.051010131835938
1733471350-211,VW T4 WESTFALIA California Coach,CHF 26'000.–,83'600 km,Diesel,"Rue de la Promenade 1, 2316 Ponts-de-Martel",26000,83600,1,20000 - 49999,low-mid,47.31846237182617,9.172804832458496
1733471360-213,BIMOBIL EX 755 Sonderbau auf Basis Mercedes-Benz Actros 1832 (Wohnmobil),CHF 339'000.–,292'000 km,Diesel,"Gewerbestrasse 1, 8451 Kleinandelfingen",339000,292000,1,200000 - 499999,mid-high,47.53379821777344,7.885025501251221
1733471366-215,MONACO Windsor 38 PBS,CHF 79'900.–,263'500 km,Diesel,"Lenzburgerstrasse 6, 5103 Wildegg",79900,263500,1,50000 - 99999,mid-high,47.56602096557617,9.091235160827637
1733471370-216,"ETRUSCO CV 600DB, Fiat Ducato 2.3MJT 140PS",CHF 49'900.–,51'500 km,Diesel,"Hofackerstrasse 7, 9606 Bütschwil",49900,51500,1,20000 - 49999,low-mid,47.040523529052734,8.134263038635254
1733471372-217,FIAT Ducato Capron EG/CF D02 Wohnmobil 6 Plätzer,CHF 52'900.–,17'000 km,Diesel,"Hauptstrasse 1, 9556 Affeltrangen",52900,17000,1,50000 - 99999,low,46.85153579711914,6.718847751617432
1733471382-219,CHEVROLET 1500 Van,CHF 19'990.–,81'000 km,Benzin,8310 Kemptthal,19990,81000,0,0 - 19999,low-mid,47.087825775146484,8.315750122070312
1733471385-220,VW VW T6 2.O TDI MAREMONTI SURF CAMPER LIGHT 6SITZE,CHF 28'900.–,98'000 km,Diesel,"Thalerstrasse 46a, 9424 Rheineck",28900,98000,1,20000 - 49999,low-mid,47.60587692260742,8.68687629699707
1733471388-221,NIESMANN + BISCHOFF Arto 79F 180PS Vollausstattung,CHF 89'800.–,48'500 km,Diesel,"Mönchmattweg 3, 5035 Unterentfelden",89800,48500,1,50000 - 99999,low,46.27153396606445,7.519195079803467
1733471390-222,MAZDA E 2000 Combi       SR1LC2,CHF 8'700.–,127'000 km,Benzin,"Stationstrasse 56, 8623 Wetzikon",8700,127000,0,0 - 19999,mid,46.965248107910156,8.383917808532715
1733471393-223,SAURER 2DM 4x4 Wohnmobil,CHF 17'500.–,13'900 km,Diesel,"Dorf 10, 9127 St. Peterzell",17500,13900,1,0 - 19999,low,47.45183181762695,8.701164245605469
1733471395-224,FIAT Challenger  Mageo 118,CHF 38'990.–,40'000 km,Diesel,"Hauptstrasse 70 A, 9105 Schönengrund",38990,40000,1,20000 - 49999,low,47.56113815307617,9.13205337524414
1733471401-226,FIAT Ducato 2.3JTD 130PS PILOT ***TOP AUSSTATTUNG***,CHF 41'900.–,85'000 km,Diesel,"Brunnenwiesenstrasse 8, 8570 Weinfelden",41900,85000,1,20000 - 49999,low-mid,47.48995590209961,7.505771160125732
1733471404-227,FIAT Ducato 2.2JTD 180PS ETRUSCO ***AUTOMAT-2x 1.4mx1.95 BETT***,CHF 62'900.–,35'000 km,Diesel,"Brunnenwiesenstrasse 8, 8570 Weinfelden",62900,35000,1,50000 - 99999,low,47.43525695800781,9.349658966064453
1733471408-228,CONCORDE Carver 920 G,CHF 313'900.–,10'705 km,Diesel,"Mittler-Langnau 1, 6105 Schachen LU",313900,10705,1,200000 - 499999,low,47.54833221435547,8.849271774291992
1733471429-229,VW Joker Typ 2,CHF 29'000.–,162'000 km,Benzin,"Route cantonale 13, 1426 Concise",29000,162000,0,20000 - 49999,mid,47.3612174987793,7.31329870223999
1733471434-230,CHALLENGER Birthday 33 - Ford 140 PS,CHF 39'900.–,78'624 km,Diesel,"Belpstr. 30 A, 3122 Kehrsatz",39900,78624,1,20000 - 49999,low-mid,47.04475021362305,8.191388130187988
1733471438-231,BÜRSTNER Lineo C 590,CHF 59'990.–,18'700 km,Diesel,"Buholzstrasse 26, 6032 Emmen",59990,18700,1,50000 - 99999,low,47.04475021362305,8.191388130187988
1733471445-232,VW Amarok 4x4 mit GEOCAR Condor plus Wohnkabine,CHF 89'900.–,58'000 km,Diesel,"Gewerbestrasse 1, 8451 Kleinandelfingen",89900,58000,1,50000 - 99999,low-mid,47.23719024658203,8.074947357177734
1733471448-233,MERCEDES-BENZ Marco Polo 250 d 7G-Tronic,CHF 39'900.–,144'000 km,Diesel,"ROUTE DE CHIPPIS 47, 3966 Chalais",39900,144000,1,20000 - 49999,mid,47.467018127441406,9.58243179321289
1733471451-234,MERCEDES-BENZ Vito 220d,CHF 42'800.–,62'000 km,Diesel,"Rieden 10, 6370 Stans",42800,62000,1,20000 - 49999,low-mid,47.07384490966797,7.588680267333984
1733471454-235,ADRIA 665SP,CHF 32'990.–,138'900 km,Diesel,8310 Kemptthal,32990,138900,1,20000 - 49999,mid,46.838157653808594,6.865045547485352
1733471456-236,FIAT Adria Sport Queensbett Nutzlast von 731 KG,CHF 40'900.–,60'800 km,Diesel,"Oberfeldstrasse 13, 8570 Weinfelden",40900,60800,1,20000 - 49999,low-mid,46.79677963256836,7.255855083465576
1733471459-237,FIAT Fiat Ducato Elnagh Duke 48 Alkhoven,CHF 38'500.–,66'000 km,Diesel,"Kehlhof 6, 8409 Winterthur-Hegi",38500,66000,1,20000 - 49999,low-mid,47.07384490966797,7.588680267333984
1733471462-238,ETRUSCO Fiat Ducato  640 SB Complete Selection,CHF 68'000.–,18'500 km,Diesel,"Hauptstrasse 46, 4112 Bättwil",68000,18500,1,50000 - 99999,low,46.20896911621094,9.038769721984863
1733471466-239,VW T6.1 California 2.0 TDI Ocean Edition Liberty,CHF 62'900.–,24'500 km,Diesel,"St. Gallerstrasse 99, 9032 Engelburg",62900,24500,1,50000 - 99999,low,46.77484130859375,7.5861101150512695
1733471469-240,ETRUSCO V 6.6 SF V2,CHF 59'780.–,15'500 km,Diesel,"Hauptstrasse 70, 8546 Islikon",59780,15500,1,50000 - 99999,low,46.90143585205078,7.227672576904297
1733471484-242,CARTHAGO Malibu Van 600 DSB 4,CHF 39'900.–,118'800 km,Diesel,"Eistrasse 1, 6102 Malters",39900,118800,1,20000 - 49999,mid,46.96083068847656,7.030811309814453
1733471493-243,SUNLIGHT Fiat Capron T 68,CHF 38'900.–,156'000 km,Diesel,"Eistrasse 1, 6102 Malters",38900,156000,1,20000 - 49999,mid,47.04475021362305,8.191388130187988
1733471500-244,VW T6 California 2.0 TDI Ocean,CHF 47'000.–,85'000 km,Diesel,"Kantonsstrasse 73, 6234 Triengen",47000,85000,1,20000 - 49999,low-mid,47.15473556518555,7.0145392417907715
1733471503-245,VW 2.0 TDI 4 MOTION DSG CAMPER 3SITZE,CHF 11'900.–,196'998 km,Diesel,"Thalerstrasse 46a, 9424 Rheineck",11900,196998,1,0 - 19999,mid,47.1705436706543,8.987462043762207
1733471506-246,VW T6.1 California 2.0 TDI Ocean Edition Liberty,CHF 62'900.–,33'000 km,Diesel,"Schachenstrasse 31, 3421 Lyssach",62900,33000,1,50000 - 99999,low,47.0927734375,8.318682670593262
1733471508-247,ROLLER TEAM Living 2 automat.,CHF 52'900.–,66'000 km,Diesel,"La Guérite 60, 1541 Sévaz",52900,66000,1,50000 - 99999,low-mid,46.15255355834961,8.952432632446289
1733471510-248,VW T6.1 California 2.0 Bi-TDI Ocean Liberty,CHF 79'500.–,10'000 km,Diesel,"Aecherli 3, 1715 Alterswil",79500,10000,1,50000 - 99999,low,46.79677963256836,7.255855083465576
1733471513-249,SUNLIGHT A70 Alkoven,CHF 69'900.–,20'000 km,Diesel,"Schachenstrasse 31, 3421 Lyssach",69900,20000,1,50000 - 99999,low,47.26013946533203,8.240265846252441
1733471516-250,SUN LIVING C SERIES 65 SL,CHF 62'269.–,16'000 km,Diesel,"Via San Gottardo 120, 6500 Bellinzona",62269,16000,1,50000 - 99999,low,47.45929718017578,9.612757682800293
1733471518-251,"NISSAN Michelangelo, Westfalia-Aufbau",CHF 49'850.–,47'900 km,Diesel,"Glütschbachstrasse 100, 3661 Uetendorf",49850,47900,1,20000 - 49999,low,47.55230712890625,7.850740432739258
1733471526-252,FORD Dethleffs possl Fortuna,CHF 21'500.–,112'000 km,Diesel,"auriedstrasse 65, 3178 Bösingen",21500,112000,1,20000 - 49999,mid,46.828243255615234,7.1501336097717285
1733471538-255,SUNLIGHT I 69L,CHF 49'900.–,115'000 km,Diesel,"Eistrasse 1, 6102 Malters",49900,115000,1,20000 - 49999,mid,47.458194732666016,8.346111297607422
1733471541-256,VW T5 California 2.0 Bi-TDI Comfortline 4Motion,CHF 38'900.–,152'000 km,Diesel,"Rue Principale 62, 2613 Villeret",38900,152000,1,20000 - 49999,mid,47.414127349853516,8.164999961853027
1733471546-257,PHOENIX PhoeniX TopX-Alkoven 8900,CHF 324'999.–,10'718 km,Diesel,"Industriestrasse 13, 8864 Reichenburg",324999,10718,1,200000 - 499999,low,47.56602096557617,9.091235160827637
1733471548-258,VW T6 California 2.0 TDI Beach Liberty 4Motion,CHF 40'600.–,82'529 km,Diesel,"Buholzstrasse 40, 6032 Emmen",40600,82529,1,20000 - 49999,low-mid,47.133209228515625,8.196508407592773
1733471553-259,ELNAGH King 55 G Klima - Solar - Sat - Luftfederung,CHF 39'900.–,54'186 km,Diesel,"via san gottardo 38, 6593 cadenazzo",39900,54186,1,20000 - 49999,low-mid,47.138427734375,8.13077449798584
1733471558-260,VW T6.1 California 2.0 TDI Ocean Edition Liberty,CHF 67'000.–,17'800 km,Diesel,"Aecherli 3, 1715 Alterswil",67000,17800,1,50000 - 99999,low,46.155582427978516,6.0946760177612305
1733471561-261,VW T6 California 2.0 TDI Beach Edition,CHF 47'900.–,62'000 km,Diesel,"Gigennagelstrasse 2, 6287 Aesch LU",47900,62000,1,20000 - 49999,low-mid,47.527305603027344,9.03041934967041
1733471564-262,FORD Transit Custom 320 L1H1 A,CHF 54'900.–,49'980 km,Diesel,"Nebengraben 5, 9430 St Margrethen",54900,49980,1,50000 - 99999,low,47.653587341308594,8.854190826416016
1733471567-263,FIAT Capron Sunlight T68,CHF 69'800.–,53'000 km,Diesel,"Bahnhofstrasse 166, 4313 Möhlin",69800,53000,1,50000 - 99999,low-mid,47.36394500732422,9.074725151062012
1733471570-264,MERCEDES-BENZ Marco Polo 300 d 4M A,CHF 70'900.–,46'300 km,Diesel,"Route d'Englisberg 4, 1763 Granges-Paccot",70900,46300,1,50000 - 99999,low,47.54833221435547,8.849271774291992
1733471572-265,HYMER B504 SL,CHF 34'800.–,151'799 km,Diesel,"Sägastrasse 34, 9485 Nendeln",34800,151799,1,20000 - 49999,mid,47.24050521850586,8.932645797729492
1733471575-266,RENAULT TRAFIC L1H1 Camper,CHF 31'800.–,43'728 km,Diesel,8957 Spreitenbach (Hauptsitz),31800,43728,1,20000 - 49999,low,46.20896911621094,9.038769721984863
1733471581-268,KNAUS SUN TI 700 MEG,CHF 59'900.–,20'740 km,Diesel,"Lenzburgerstrasse 6, 5103 Wildegg",59900,20740,1,50000 - 99999,low,47.3612174987793,7.31329870223999
1733471583-269,VW T6 California 2.0 Bi-TDI Beach Liberty 4Motion,CHF 39'900.–,159'500 km,Diesel,"Brunnenwiesenstrasse 8, 8570 Weinfelden",39900,159500,1,20000 - 49999,mid,47.070621490478516,7.59507942199707
1733471586-270,VW T6.1 California 2.0 TDI Ocean Last Edition,CHF 71'900.–,14'000 km,Diesel,"Ebersmoos 1, 6204 Sempach",71900,14000,1,50000 - 99999,low,47.282169342041016,7.3807477951049805
1733471591-271,VW Caddy 2.0 TDI 4Motion California,CHF 32'900.–,85'000 km,Diesel,"Eybachstrasse 2, 6207 Nottwil",32900,85000,1,20000 - 49999,low-mid,47.25844192504883,7.666701316833496
1733471598-272,VW California TDI Ocean A,CHF 49'900.–,65'000 km,Diesel,"276 Rte de St Julien, 1258 PERLY",49900,65000,1,20000 - 49999,low-mid,46.838157653808594,6.865045547485352
1733471601-273,FIAT 238 Camper,CHF 3'800.–,81'286 km,Benzin,"Hauptstrasse 1, 9556 Affeltrangen",3800,81286,0,0 - 19999,low-mid,46.15255355834961,8.952432632446289
1733471605-274,HYMER B 680 MC T,CHF 92'500.–,13'500 km,Diesel,"Kaltenbacherstrasse 30, 8260 Stein am Rhein",92500,13500,1,50000 - 99999,low,47.47590255737305,9.550376892089844
1733471611-276,ROLLER TEAM Zefiro 267 / TL10,CHF 69'880.–,17'980 km,Diesel,"Hauptstrasse 70, 8546 Islikon",69880,17980,1,50000 - 99999,low,47.36394500732422,9.074725151062012
1733471616-277,VW T6 California 2.0 Bi-TDI Ocean,CHF 53'900.–,36'500 km,Diesel,"Twirrenstrasse 2, 8733 Eschenbach",53900,36500,1,50000 - 99999,low,47.60587692260742,8.68687629699707
1733471619-278,ADRIA CORAL XL AXESS 600 DP,CHF 67'870.–,17'000 km,Diesel,"Via San Gottardo 120, 6500 Bellinzona",67870,17000,1,50000 - 99999,low,46.838157653808594,6.865045547485352
1733471625-280,VW T5 Multivan 2.5 TDI 131 Startline,CHF 15'900.–,215'000 km,Diesel,"Hinterdorfstr. 5, 3550 Langnau i.E.",15900,215000,1,0 - 19999,mid-high,47.40474319458008,8.719557762145996
1733471637-284,RIMOR Fiat Horus 145 RAMON,CHF 58'500.–,36'700 km,Diesel,"Niederbippstrasse 3, 4538 Oberbipp",58500,36700,1,50000 - 99999,low,47.14973831176758,6.9913153648376465
1733471640-285,PÖSSL Globecar R Automat.,CHF 46'900.–,50'800 km,Diesel,"La Guérite 60, 1541 Sévaz",46900,50800,1,20000 - 49999,low-mid,47.570777893066406,7.576108455657959
1733471644-286,PÖSSL Globecar Campscout 640 Automatikgetriebe,CHF 39'900.–,77'600 km,Diesel,"via san gottardo 38, 6593 cadenazzo",39900,77600,1,20000 - 49999,low-mid,47.4912223815918,8.338791847229004
1733471650-287,OPEL Vivaro B 16CDTi Camper Van,CHF 29'900.–,134'869 km,Diesel,"Buechbergstrasse 10, 9422 Staad SG",29900,134869,1,20000 - 49999,mid,47.07384490966797,7.588680267333984
1733471660-288,OPEL Life Edition Camper,CHF 52'800.–,29'900 km,Diesel,"Rue de la Croix 22 (ZI), 2822 Courroux",52800,29900,1,50000 - 99999,low,47.205604553222656,8.369141578674316
1733471663-289,ETRUSCO I 6900 SB *Hymer-Gruppe* Fiat Ducato 2.3MJT 140PS,CHF 66'900.–,20'000 km,Diesel,"Hofackerstrasse 7, 9606 Bütschwil",66900,20000,1,50000 - 99999,low,46.9282341003418,7.560643196105957
1733471667-290,DETHLEFFS Trend T7057 EB,CHF 85'870.–,15'000 km,Diesel,"Gewerbestrasse 1, 8451 Kleinandelfingen",85870,15000,1,50000 - 99999,low,46.20896911621094,9.038769721984863
1733471676-292,KNAUS Vansation 550,CHF 52'777.–,54'200 km,Diesel,"Hauptstrasse 216, 4565 Recherswil",52777,54200,1,50000 - 99999,low-mid,47.60587692260742,8.68687629699707
1733471680-293,BÜRSTNER Aviano 709,CHF 42'900.–,55'800 km,Diesel,"Im Chrummenacher 8, 8308 Illnau",42900,55800,1,20000 - 49999,low-mid,47.36394500732422,9.074725151062012
1733471683-294,VW T6.1 California 2.0 TDI Beach Liberty 4Motion,CHF 62'000.–,75'000 km,Diesel,"C.F.L. Lohnerstrasse 25, 3645 Gwatt (Thun)",62000,75000,1,50000 - 99999,low-mid,47.11088943481445,7.3141961097717285
1733471686-295,FIAT Ducato CAPRON A464,CHF 49'900.–,86'000 km,Diesel,"Via serta 14, 6814 Lamone (Ticino)",49900,86000,1,20000 - 49999,low-mid,47.15397644042969,7.59208869934082
1733471692-297,VW Caddy 1.5 TSI California Spirit DSG,CHF 35'900.–,30'700 km,Benzin,"Rue Baptiste-Savoye 16, 2610 St-Imier",35900,30700,0,20000 - 49999,low,47.25844192504883,7.666701316833496
1733471696-298,FIAT LMC T 662,CHF 53'900.–,15'051 km,Diesel,"Voltastrasse 89, 4056 Basel",53900,15051,1,50000 - 99999,low,47.555763244628906,9.370901107788086
1733471699-299,FIAT 15Q 2.3 JTD L2-H2 CAMPER,CHF 35'800.–,120'000 km,Diesel,"Breitwies 5, 5420 Ehrendingen",35800,120000,1,20000 - 49999,mid,47.555763244628906,9.370901107788086
1733471702-300,MERCEDES-BENZ Marco Polo 300 d lang 4M Automat,CHF 74'900.–,30'000 km,Diesel,"Schachenstrasse 31, 3421 Lyssach",74900,30000,1,50000 - 99999,low,46.838157653808594,6.865045547485352
1733471704-301,VW T5 California 2.0 TDI,CHF 15'800.–,270'000 km,Diesel,"Kreuzfeldstrasse 2, 5644 Auw",15800,270000,1,0 - 19999,mid-high,47.380245208740234,9.089670181274414
1733471707-302,VW 1.9 TDI,CHF 27'900.–,149'000 km,Diesel,"Bernstrasse 26, 3076 Worb",27900,149000,1,20000 - 49999,mid,47.36394500732422,9.074725151062012
1733471710-303,KNAUS BOX STAR 600,CHF 53'898.–,60'000 km,Diesel,"Via San Gottardo 120, 6500 Bellinzona",53898,60000,1,50000 - 99999,low-mid,47.44831466674805,8.430784225463867
1733471714-304,VW T2 CARAVELLE BLUESTAR Multivan Hannover Edition,CHF 23'999.–,151'000 km,Diesel,"Rte de Lausanne 22, 1422 Grandson (Les Tuileries)",23999,151000,1,20000 - 49999,mid,47.36394500732422,9.074725151062012
1733471716-305,VW T6.1 4x4 Octo-bus von Fischer Wohnmobile,CHF 104'300.–,65'000 km,Diesel,"Gewerbestrasse 1, 8451 Kleinandelfingen",104300,65000,1,100000 - 199999,low-mid,47.555763244628906,9.370901107788086
1733471719-306,"DETHLEFFS Trend T 7057DBM, Fiat Ducato 2.2MJT 140PS",CHF 64'900.–,42'000 km,Diesel,"Hofackerstrasse 7, 9606 Bütschwil",64900,42000,1,50000 - 99999,low,47.503360748291016,8.780144691467285
1733471722-307,VW T6.1 California 2.0 TDI Ocean Edition Liberty,CHF 64'900.–,19'000 km,Diesel,"Industriestrasse 5, 2557 Studen",64900,19000,1,50000 - 99999,low,47.22220230102539,8.159356117248535
1733471726-308,BÜRSTNER City Car 640 mit Einzelbett & Automat!,CHF 61'999.–,15'900 km,Diesel,"Hauptstrasse 216, 4565 Recherswil",61999,15900,1,50000 - 99999,low,46.15255355834961,8.952432632446289
1733471730-309,VW T6 California 2.0 Bi-TDI Beach,CHF 39'900.–,191'000 km,Diesel,"Belpbergstr. 3+5 / Seftigenstrasse 198, 3125 Toffen / 3084 Wabern",39900,191000,1,20000 - 49999,mid,47.36394500732422,9.074725151062012
1733471737-311,SUNLIGHT Fiat A 70 Adventure,CHF 54'999.–,50'000 km,Diesel,"Arbonerstrasse 1, 8599 Salmsach",54999,50000,1,50000 - 99999,low,47.12884521484375,8.325882911682129
1733471748-312,SUNLIGHT Fiat 160PS A 70 Adventure,CHF 59'999.–,50'000 km,Diesel,"Arbonerstrasse 1, 8599 Salmsach",59999,50000,1,50000 - 99999,low,46.15255355834961,8.952432632446289
1733471751-313,SUNLIGHT V 60,CHF 43'900.–,18'900 km,Diesel,"La Guérite 60, 1541 Sévaz",43900,18900,1,20000 - 49999,low,47.0927734375,8.318682670593262
1733471754-314,FIAT Ducato 2.2 L1 H1 Adventure,CHF 25'000.–,121'000 km,Diesel,"Schulhausweg 4, 9608 Ganterschwil",25000,121000,1,20000 - 49999,mid,47.36394500732422,9.074725151062012
1733471757-315,"CARTHAGO Chic I 47, Fiat- Iveco 3.0MJT 160PS",CHF 39'900.–,96'000 km,Diesel,"Hofackerstrasse 7, 9606 Bütschwil",39900,96000,1,20000 - 49999,low-mid,47.43525695800781,9.349658966064453
1733471763-317,"DETHLEFFS Just Go T 7055EB, Ford 2.0EcoBlue 160PS",CHF 68'900.–,14'500 km,Diesel,"Hofackerstrasse 7, 9606 Bütschwil",68900,14500,1,50000 - 99999,low,47.00143051147461,7.273756980895996
1733471770-319,OPEL VIVARO,CHF 58'000.–,25'000 km,Diesel,"Im Geren 18, 8352 Elsau",58000,25000,1,50000 - 99999,low,46.838157653808594,6.865045547485352
1733471774-320,VW T6.1 California 2.0 TDI Ocean Liberty 4Motion,CHF 72'900.–,22'100 km,Diesel,"Brüelmattstrasse 8, 6221 Rickenbach LU",72900,22100,1,50000 - 99999,low,47.508487701416016,7.721120357513428
1733471778-321,ADRIA 687 SL Automatik 3.8 ton - Hubbett - Alde Heizung - Anhängekupplung,CHF 45'900.–,46'450 km,Diesel,"via san gottardo 38, 6593 cadenazzo",45900,46450,1,20000 - 49999,low,47.58262252807617,9.168120384216309
1733471781-322,"DETHLEFFS Just 90 T 6812EB, Fiat Ducato 2.2MJT 140PS",CHF 69'900.–,16'000 km,Diesel,"Hofackerstrasse 7, 9606 Bütschwil",69900,16000,1,50000 - 99999,low,47.55230712890625,7.850740432739258
1733471791-325,HYMER B790 Masterline,CHF 136'000.–,29'320 km,Diesel,"via san gottardo 38, 6593 cadenazzo",136000,29320,1,100000 - 199999,low,46.2032470703125,6.135101795196533
1733471794-326,VW T6 California 2.0 TDI Beach Liberty,CHF 40'200.–,100'575 km,Diesel,"Buholzstrasse 40, 6032 Emmen",40200,100575,1,20000 - 49999,mid,46.9282341003418,7.560643196105957
1733471797-327,"ETRUSCO Cv 640 ""Complete Selection"" Fiat Ducato 2.3MJT 140PS",CHF 52'900.–,61'000 km,Diesel,"Hofackerstrasse 7, 9606 Bütschwil",52900,61000,1,50000 - 99999,low-mid,46.77728271484375,7.579732418060303
1733471801-328,VW T6.1 California 2.0 TDI Ocean Last Edition,CHF 65'800.–,33'400 km,Diesel,"St. Gallerstrasse 99, 9032 Engelburg",65800,33400,1,50000 - 99999,low,46.77728271484375,7.579732418060303
1733471816-329,ROLLER TEAM LIVINGSTONE 2 ADVANCE - AUTOMAT! 140PS! ab MFK & Service!,CHF 53'390.–,56'990 km,Diesel,"Johann-Renfer-Strasse 3, 2504 Biel/Bienne",53390,56990,1,50000 - 99999,low-mid,47.56706237792969,8.858413696289062
1733471818-330,AHORN Van 550,CHF 49'900.–,24'500 km,Diesel,"Sahlimatte 200, 3036 Detligen",49900,24500,1,20000 - 49999,low,46.774803161621094,7.615665435791016
1733471821-331,VW T6 California 2.0 TDI Ocean Liberty,CHF 56'900.–,32'300 km,Diesel,"Z.I. du Moulin-du-Choc G, 1122 Romanel-sur-Morges",56900,32300,1,50000 - 99999,low,47.54833221435547,8.849271774291992
1733471830-332,CARADO A366 6 places,CHF 29'900.–,113'500 km,Diesel,"La Guérite 60, 1541 Sévaz",29900,113500,1,20000 - 49999,mid,47.741600036621094,8.709936141967773
1733471834-333,ADRIA CL 670SL Plus,CHF 79'950.–,57'500 km,Diesel,"Rheinstrasse 50, 4414 Füllinsdorf",79950,57500,1,50000 - 99999,low-mid,47.741600036621094,8.709936141967773
1733471838-334,VW T6 2.0 TDI Wohnmobil (ähnlich California),CHF 42'900.–,57'176 km,Diesel,"Hauptstrasse 69, 8572 Berg TG",42900,57176,1,20000 - 49999,low-mid,47.46080017089844,8.519329071044922
1733471866-336,RANDGER R490 auto - 5 places,CHF 54'900.–,14'000 km,Diesel,"Rte de Porrentruy 86, 2800 Delémont",54900,14000,1,50000 - 99999,low,47.741600036621094,8.709936141967773
1733471868-337,VW T6.1 California 2.0 TDI Beach Liberty Spirit,CHF 52'000.–,67'000 km,Diesel,"Via serta 14, 6814 Lamone (Ticino)",52000,67000,1,50000 - 99999,low-mid,47.741600036621094,8.709936141967773
1733471872-338,MERCEDES-BENZ Marco Polo 250 d  4M Automat,CHF 69'900.–,19'000 km,Diesel,"Rue du Stand 3bis, 1204 Genève",69900,19000,1,50000 - 99999,low,47.199859619140625,8.53844165802002
1733471880-340,FORD Ranger 2.5TDCi 4x4,CHF 28'898.–,180'000 km,Diesel,"Bernstrasse 26, 3076 Worb",28898,180000,1,20000 - 49999,mid,47.56706237792969,8.858413696289062
1733471885-341,MERCEDES-BENZ Marco Polo Horiz 300 d 4M,CHF 94'900.–,17'500 km,Diesel,"Industriestrasse 15, 3661 Uetendorf",94900,17500,1,50000 - 99999,low,47.07444381713867,7.581071853637695
1733471888-342,MERCEDES-BENZ Marco Polo Horiz 250 d 4M,CHF 69'900.–,13'500 km,Diesel,"Industriestrasse 15, 3661 Uetendorf",69900,13500,1,50000 - 99999,low,47.741600036621094,8.709936141967773
1733471892-343,VW Grand California 600 2.0 BI-TDI,CHF 64'800.–,54'700 km,Diesel,"Eichäckerstrasse 1, 8500 Frauenfeld",64800,54700,1,50000 - 99999,low-mid,47.741600036621094,8.709936141967773
1733471897-344,ADRIA Supreme I 810SL,CHF 114'900.–,28'100 km,Diesel,"Bernstrasse 115, 3613 Steffisburg",114900,28100,1,100000 - 199999,low,47.741600036621094,8.709936141967773
1733471903-345,DETHLEFFS Trend 90 T7057 EB,CHF 65'970.–,13'500 km,Diesel,"Hauptstrasse 70, 8546 Islikon",65970,13500,1,50000 - 99999,low,47.741600036621094,8.709936141967773
1733471909-346,"CHAUSSON TWIST V 594 START 2,3 DIESEL FIAT DUCATO MULTIJET 130",CHF 39'997.–,61'772 km,Diesel,"Zollstrasse 33, 8240 Thayngen(SH)",39997,61772,1,20000 - 49999,low-mid,47.741600036621094,8.709936141967773
1733471913-347,"KARMANN DEXTER 555 2,3 DIESEL HOCHDACH H3 FIAT DUCATO MAXI PROFESSIOAL MJ 130",CHF 59'997.–,32'137 km,Diesel,"Zollstrasse 33, 8240 Thayngen(SH)",59997,32137,1,50000 - 99999,low,47.741600036621094,8.709936141967773
1733471917-348,"LAIKA Fiat Laika Ecovip 309 2.3, 131 PS",CHF 47'750.–,19'700 km,Diesel,"Riedgrabenstrasse 3, 8153 Rümlang",47750,19700,1,20000 - 49999,low,47.741600036621094,8.709936141967773
1733471920-349,MERCEDES-BENZ Viano Marco Polo 3.5 L Aut.,CHF 44'900.–,89'000 km,Benzin,"Rue Pré-de-la-Fontaine 8A. Bâtiment C., 1242 Satigny",44900,89000,0,20000 - 49999,low-mid,47.741600036621094,8.709936141967773
1733471925-350,"KARMANN DEXTER GO 600 2,3 DIESEL FIAT DUCATO PROFESSIONAL MJ2 130",CHF 48'997.–,32'253 km,Diesel,"Zollstrasse 33, 8240 Thayngen(SH)",48997,32253,1,20000 - 49999,low,47.741600036621094,8.709936141967773
1733471930-351,"WEINSBERG CARATOUR 600 ME 2,3 DIESEL 9G-AUTOMAT FIAT DUCATO MJ 140",CHF 64'997.–,47'099 km,Diesel,"Zollstrasse 33, 8240 Thayngen(SH)",64997,47099,1,50000 - 99999,low,47.741600036621094,8.709936141967773
1733471938-352,FIAT 2.8 JTD - Super Ausstattung,CHF 23'997.–,59'000 km,Diesel,"Lättichstrasse 6, 6340 Baar",23997,59000,1,20000 - 49999,low-mid,47.741600036621094,8.709936141967773
1733471941-353,KNAUS Sky Wave 650 MEG mit Einzelbett & Hubbett,CHF 49'990.–,68'999 km,Diesel,"Johann-Renfer-Strasse 3, 2504 Biel/Bienne",49990,68999,1,20000 - 49999,low-mid,47.741600036621094,8.709936141967773
1733471951-355,VW T6 California 2.0 Bi-TDI Ocean GREY 4Motion,CHF 54'900.–,109'800 km,Diesel,"Eichäckerstrasse 1, 8500 Frauenfeld",54900,109800,1,50000 - 99999,mid,47.741600036621094,8.709936141967773
1733471954-356,FRANKIA YUCON 6.0,CHF 99'900.–,12'266 km,Diesel,"Kirchbergstrasse 61, 3421 Lyssach",99900,12266,1,50000 - 99999,low,47.741600036621094,8.709936141967773
1733471958-357,"FORD TRANSIT CUSTOM NUGGET WESTFALIA AUFSTELLDACH 2,2 TDCI DIESEL",CHF 39'997.–,79'005 km,Diesel,"Zollstrasse 33, 8240 Thayngen(SH)",39997,79005,1,20000 - 49999,low-mid,47.741600036621094,8.709936141967773
1733471961-358,HYMER SIERRA NEVADA 2.3 DIESEL HUBDACH FIAT DUCATO MULTIJET 150,CHF 51'797.–,43'026 km,Diesel,"Zollstrasse 33, 8240 Thayngen(SH)",51797,43026,1,50000 - 99999,low,47.741600036621094,8.709936141967773
1733471965-359,"SUNLIGHT CAPRON T 64 2,3 DIESEL FIAT DUCATO MULTIJET 130",CHF 39'997.–,61'140 km,Diesel,"Zollstrasse 33, 8240 Thayngen(SH)",39997,61140,1,20000 - 49999,low-mid,47.741600036621094,8.709936141967773
1733471970-360,"MCLOUIS MC 4 22 GOLD 2,3 DIESEL FIAT DUCATO MULTIJET 130",CHF 47'997.–,32'281 km,Diesel,"Zollstrasse 33, 8240 Thayngen(SH)",47997,32281,1,20000 - 49999,low,47.741600036621094,8.709936141967773
1733471975-361,"ADRIA SUN LIVING C FLEXO SP 2,3 DIESEL FIAT DUCATO MULTIJET 130",CHF 40'997.–,59'985 km,Diesel,"Zollstrasse 33, 8240 Thayngen(SH)",40997,59985,1,20000 - 49999,low-mid,47.741600036621094,8.709936141967773
1733471984-362,"KARMANN DAVIS V 590 2,3 DIESEL FIAT DUCATO MULTIJET 130",CHF 47'997.–,42'441 km,Diesel,"Zollstrasse 33, 8240 Thayngen(SH)",47997,42441,1,20000 - 49999,low,47.741600036621094,8.709936141967773
1733471986-363,"SUNLIGHT CAPRON I 68 2,3 DIESEL FIAT DUCATO MULTIJET 130",CHF 59'997.–,26'128 km,Diesel,"Zollstrasse 33, 8240 Thayngen(SH)",59997,26128,1,50000 - 99999,low,47.741600036621094,8.709936141967773
1733471989-364,"PILOTE V 630 J 2,3 DIESEL FIAT DUCATO MULTIJET 130",CHF 39'997.–,47'332 km,Diesel,"Zollstrasse 33, 8240 Thayngen(SH)",39997,47332,1,20000 - 49999,low,46.375465393066406,8.919133186340332
1733471992-365,"PILOTE P 706 ESSENTIEL 2,3 DIESEL FIAT DUCATO MULTIJET 130",CHF 49'997.–,52'392 km,Diesel,"Zollstrasse 33, 8240 Thayngen(SH)",49997,52392,1,20000 - 49999,low-mid,47.741600036621094,8.709936141967773
1733471996-366,"SUNLIGHT CAPRON I 68 ACTIVE 2,3 DIESEL AUTOMAT FIAT DUCATO MULTIJET 150",CHF 57'597.–,56'321 km,Diesel,"Zollstrasse 33, 8240 Thayngen(SH)",57597,56321,1,50000 - 99999,low-mid,47.741600036621094,8.709936141967773
1733471999-367,"KNAUS SKY TRAVELLER FAMILY 600 DKG 2,3 DIESEL AUTOMAT FIAT DUCATO MULTIJET 150",CHF 47'997.–,49'985 km,Diesel,"Zollstrasse 33, 8240 Thayngen(SH)",47997,49985,1,20000 - 49999,low,47.741600036621094,8.709936141967773
1733472001-368,"KNAUS BOX STAR 2,3 DIESEL HOCHDACH H3 FIAT DUCATO MULTIJET 150",CHF 59'897.–,33'487 km,Diesel,"Zollstrasse 33, 8240 Thayngen(SH)",59897,33487,1,50000 - 99999,low,47.741600036621094,8.709936141967773
1733472005-369,"PILOTE P 650 ESSENTIEL 2,3 DIESEL FIAT DUCATO MULTIJET 130",CHF 49'697.–,54'550 km,Diesel,"Zollstrasse 33, 8240 Thayngen(SH)",49697,54550,1,20000 - 49999,low-mid,47.741600036621094,8.709936141967773
1733472009-370,"PÖSSL VARIO 499 2,2 HDI DIESEL HOCHDACH H3 CITROEN JUMPER",CHF 49'997.–,22'981 km,Diesel,"Zollstrasse 33, 8240 Thayngen(SH)",49997,22981,1,20000 - 49999,low,47.741600036621094,8.709936141967773
1733472023-372,"MALIBU CARTHAGO VAN 600 2,3 DIESEL FIAT DUCATO MULTIJET 150",CHF 49'997.–,32'648 km,Diesel,"Zollstrasse 33, 8240 Thayngen(SH)",49997,32648,1,20000 - 49999,low,47.741600036621094,8.709936141967773
1733472026-373,"PÖSSL ROADCAR R 600 2,3 DIESEL FIAT DUCATO MULTIJET PROFESSIONAL 130",CHF 40'997.–,66'055 km,Diesel,"Zollstrasse 33, 8240 Thayngen(SH)",40997,66055,1,20000 - 49999,low-mid,47.741600036621094,8.709936141967773
1733472029-374,"SUNLIGHT CAPRON 600 2,3 DIESEL FIAT DUCATO MULTIJET 150",CHF 47'997.–,46'314 km,Diesel,"Zollstrasse 33, 8240 Thayngen(SH)",47997,46314,1,20000 - 49999,low,47.741600036621094,8.709936141967773
1733472032-375,"ADRIA MATRIX M 670 SL 50 JAHRE EDITION 2,3 DIESEL FIAT DUCATO MULTIJET 150",CHF 59'997.–,11'702 km,Diesel,"Zollstrasse 33, 8240 Thayngen(SH)",59997,11702,1,50000 - 99999,low,47.741600036621094,8.709936141967773
1733472038-376,"PÖSSL GLOBECAR CAMPSCOUT REVOLUTION 2,3 DIESEL HOCHDACH H3 FIAT DUCATO MAXI PROFESSIONAL MULTIJET 150",CHF 55'997.–,39'113 km,Diesel,"Zollstrasse 33, 8240 Thayngen(SH)",55997,39113,1,50000 - 99999,low,47.741600036621094,8.709936141967773
1733472041-377,"CARADO A 461 2,3 DIESEL FIAT DUCATO MULTIJET 140",CHF 55'197.–,27'537 km,Diesel,"Zollstrasse 33, 8240 Thayngen(SH)",55197,27537,1,50000 - 99999,low,47.741600036621094,8.709936141967773
1733472044-378,"LAIKA ECOVIP 609 2,3 DIESEL FIAT DUCATO MULTIJET 150",CHF 54'997.–,28'177 km,Diesel,"Zollstrasse 33, 8240 Thayngen(SH)",54997,28177,1,50000 - 99999,low,47.741600036621094,8.709936141967773
1733472047-379,ROLLER TEAM Pegaso MYTHOS 285,CHF 73'900.–,38'900 km,Diesel,"Via Bellinzona 7, 6743 Bodio",73900,38900,1,50000 - 99999,low,47.741600036621094,8.709936141967773
1733472049-380,"CHAUSSON TWIST V 594 START LIMITED EDITION 2,3 DIESEL FIAT DUCATO MULTIJET 2 130",CHF 44'997.–,43'749 km,Diesel,"Zollstrasse 33, 8240 Thayngen(SH)",44997,43749,1,20000 - 49999,low,47.741600036621094,8.709936141967773
1733472052-381,"CI CARAVANSINTERNATIONAL MAGIS 85 INTEGRAL 2,3 DIESEL FIAT DUCATO MULTIJET 130",CHF 56'997.–,27'705 km,Diesel,"Zollstrasse 33, 8240 Thayngen(SH)",56997,27705,1,50000 - 99999,low,46.82259750366211,7.301876544952393
1733472054-382,"CARADO A 461 2,3 DIESEL FIAT DUCATO MULTIJET 130",CHF 47'997.–,43'126 km,Diesel,"Zollstrasse 33, 8240 Thayngen(SH)",47997,43126,1,20000 - 49999,low,45.997154235839844,8.911989212036133
1733472057-383,"PÖSSL R 640 2,3 DIESEL FIAT DUCATO MAXI PROFESSIONAL MULTIJET 160",CHF 56'997.–,29'839 km,Diesel,"Zollstrasse 33, 8240 Thayngen(SH)",56997,29839,1,50000 - 99999,low,47.741600036621094,8.709936141967773
1733472060-384,"RAPIDO 8096 DF PREMIUM EDITION 2,3 DIESEL FIAT DUCATO MULTIJET 150",CHF 67'997.–,30'531 km,Diesel,"Zollstrasse 33, 8240 Thayngen(SH)",67997,30531,1,50000 - 99999,low,47.741600036621094,8.709936141967773
1733472063-385,"ROLLER TEAM KRONOS 267 TL 2,0 TDCI DIESEL FORD",CHF 57'597.–,24'094 km,Diesel,"Zollstrasse 33, 8240 Thayngen(SH)",57597,24094,1,50000 - 99999,low,47.741600036621094,8.709936141967773
1733472068-386,SUNLIGHT T67 (Citroen Jumper 140PS),CHF 61'950.–,20'500 km,Diesel,"Industriestrasse 14, 8355 Aadorf",61950,20500,1,50000 - 99999,low,47.741600036621094,8.709936141967773
1733472073-387,"MALIBU CARTHAGO VAN V 600 DB 2,3 DIESEL FIAT DUCATO MULTIJET 130",CHF 54'997.–,15'983 km,Diesel,"Zollstrasse 33, 8240 Thayngen(SH)",54997,15983,1,50000 - 99999,low,47.741600036621094,8.709936141967773
1733472076-388,"KNAUS BOX STAR 630 FREEWAY 2,3 DIESEL 9G-AUTOMAT HOCHDACH H3 FIAT DUCATO MULTIJET 160",CHF 66'996.–,29'233 km,Diesel,"Zollstrasse 33, 8240 Thayngen(SH)",66996,29233,1,50000 - 99999,low,47.741600036621094,8.709936141967773
1733472078-389,"CARADO CAPRON A 464 2,3 D FIAT DUCATO MULTIJET 140",CHF 57'597.–,18'286 km,Diesel,"Zollstrasse 33, 8240 Thayngen(SH)",57597,18286,1,50000 - 99999,low,47.741600036621094,8.709936141967773
1733472083-391,"HYMER YOSEMITE 2,3 DIESEL HUBDACH FIAT DUCATO MULTIJET 130",CHF 62'997.–,53'988 km,Diesel,"Zollstrasse 33, 8240 Thayngen(SH)",62997,53988,1,50000 - 99999,low-mid,47.741600036621094,8.709936141967773
1733472091-392,"BÜRSTNER LYSEO TIME IT 727 G HARMONY LINE 2,0 BLUEHDI CITROEN JUMPER",CHF 62'997.–,19'985 km,Diesel,"Zollstrasse 33, 8240 Thayngen(SH)",62997,19985,1,50000 - 99999,low,47.741600036621094,8.709936141967773
1733472094-393,"KNAUS WEINSBERG CARABUS 2,3 DIESEL AUTOMAT HOCHDACH H3 FIAT DUCATO MULTIJET 130",CHF 63'997.–,16'694 km,Diesel,"Zollstrasse 33, 8240 Thayngen(SH)",63997,16694,1,50000 - 99999,low,47.741600036621094,8.709936141967773
1733472102-394,"WEINSBERG KNAUS CARABUS 2,3 DIESEL AUTOMAT HOCHDACH H3 FIAT DUCATO MULTIJET 130",CHF 63'997.–,16'694 km,Diesel,"Zollstrasse 33, 8240 Thayngen(SH)",63997,16694,1,50000 - 99999,low,47.741600036621094,8.709936141967773
1733472110-396,VW Cali. TDI Oce. Ed. Lib. A,CHF 67'000.–,10'600 km,Diesel,"Spisi 9, 1714 Heitenried",67000,10600,1,50000 - 99999,low,47.741600036621094,8.709936141967773
1733472113-397,LAIKA ECOVIP 690,CHF 54'900.–,62'500 km,Diesel,"via alla Foce n. 5, 6933 Muzzano",54900,62500,1,50000 - 99999,low-mid,47.741600036621094,8.709936141967773
1733472119-398,"ROLLER TEAM LIVINGSTONE 2 2,3 DIESEL 9G-AUTOMAT FIAT DUCATO MJ 140",CHF 61'397.–,25'869 km,Diesel,"Zollstrasse 33, 8240 Thayngen(SH)",61397,25869,1,50000 - 99999,low,47.741600036621094,8.709936141967773
1733472124-399,"LAIKA ECOVIP 309 S 2,3 DIESEL FIAT DUCATO MJ2 150",CHF 54'697.–,49'985 km,Diesel,"Zollstrasse 33, 8240 Thayngen(SH)",54697,49985,1,50000 - 99999,low,47.741600036621094,8.709936141967773
1733472134-400,"ETRUSCO A 6600 BB 2,3 DIESEL FIAT DUCATO MJ 140",CHF 57'597.–,35'081 km,Diesel,"Zollstrasse 33, 8240 Thayngen(SH)",57597,35081,1,50000 - 99999,low,47.741600036621094,8.709936141967773
1733472141-401,"ETRUSCO V 6600 SB 2,3 DIESEL 9G-AUTOMAT FIAT DUCATO MJ 140",CHF 65'997.–,14'589 km,Diesel,"Zollstrasse 33, 8240 Thayngen(SH)",65997,14589,1,50000 - 99999,low,47.40693283081055,8.31423568725586
1733472147-402,"PILOTE GALAXY G 650 ESSENTIEL 2,3 DIESEL FIAT DUCATO MJ 150",CHF 54'997.–,57'383 km,Diesel,"Zollstrasse 33, 8240 Thayngen(SH)",54997,57383,1,50000 - 99999,low-mid,47.741600036621094,8.709936141967773
1733472153-403,"ROLLER TEAM AUTO ROLLER KRONOS 264 TL 2,0 TDCI FORD",CHF 49'997.–,57'859 km,Diesel,"Zollstrasse 33, 8240 Thayngen(SH)",49997,57859,1,20000 - 49999,low-mid,47.741600036621094,8.709936141967773
1733472159-404,"CARADO I 447 EMOTION 2,3 DIESEL 9G-AUTOMAT FIAT DUCATO MJ 180",CHF 69'997.–,19'985 km,Diesel,"Zollstrasse 33, 8240 Thayngen(SH)",69997,19985,1,50000 - 99999,low,47.741600036621094,8.709936141967773
1733472164-405,BÜRSTNER NEXXO T620 G (Citroen Jump.),CHF 62'950.–,14'500 km,Diesel,"Industriestrasse 14, 8355 Aadorf",62950,14500,1,50000 - 99999,low,47.741600036621094,8.709936141967773
1733472169-406,"DETHLEFFS JUST 7052 EB 2,2 HDI DIESEL CITROEN JUMPER",CHF 63'997.–,14'231 km,Diesel,"Zollstrasse 33, 8240 Thayngen(SH)",63997,14231,1,50000 - 99999,low,47.741600036621094,8.709936141967773
1733472175-407,"BENIMAR MILEO 263 2,3 DIESEL FIAT DUCATO MJ 160",CHF 65'996.–,33'854 km,Diesel,"Zollstrasse 33, 8240 Thayngen(SH)",65996,33854,1,50000 - 99999,low,47.741600036621094,8.709936141967773
1733472180-408,"CHAUSSON TWIST V 594 START SPEZIAL EDITION 2,3  DIESEL FIAT DUCATO MJ 130",CHF 49'997.–,48'856 km,Diesel,"Zollstrasse 33, 8240 Thayngen(SH)",49997,48856,1,20000 - 49999,low,47.741600036621094,8.709936141967773
1733472185-409,"PÖSSL GLOBECAR GLOBESTAR 600 L REVOLUTION 2,3 DIESEL AUTOMAT HOCHDACH H3 FIAT DUCATO PROFESSIONAL MJ 150",CHF 56'997.–,42'124 km,Diesel,"Zollstrasse 33, 8240 Thayngen(SH)",56997,42124,1,50000 - 99999,low,47.741600036621094,8.709936141967773
1733472191-410,MERCEDES-BENZ Marco Polo - V 300 d L 4M - Horizon - 4x4 - Aufstelldach,CHF 69'900.–,29'600 km,Diesel,"Sternmatt 6, 6010 Kriens / Luzern",69900,29600,1,50000 - 99999,low,47.741600036621094,8.709936141967773
1733472198-411,"PILOTE V 630 2,3 DIESEL FIAT DUCATO PROFESSIONAL MJ 130",CHF 47'997.–,39'985 km,Diesel,"Zollstrasse 33, 8240 Thayngen(SH)",47997,39985,1,20000 - 49999,low,47.741600036621094,8.709936141967773
1733472212-412,"KARMANN DAVIS 590 2,3 DIESEL 9G-AUTOMAT FIAT DUCATO MJ 160",CHF 59'997.–,19'985 km,Diesel,"Zollstrasse 33, 8240 Thayngen(SH)",59997,19985,1,50000 - 99999,low,47.41001510620117,7.49330997467041
1733472218-413,"DETHLEFFS TREND T 6767 2,3 DIESEL FIAT DUCATO MJ 150",CHF 46'997.–,89'985 km,Diesel,"Zollstrasse 33, 8240 Thayngen(SH)",46997,89985,1,20000 - 49999,low-mid,47.741600036621094,8.709936141967773
1733472224-414,"FORD TRANSIT CUSTOM NUGGET WESTFALIA HOCHDACH H3 2,2 TDCI DIESEL",CHF 46'997.–,42'615 km,Diesel,"Zollstrasse 33, 8240 Thayngen(SH)",46997,42615,1,20000 - 49999,low,47.741600036621094,8.709936141967773
1733472232-415,"ETRUSCO I 7400 SB COMPLETE SELECTION 2,3 DIESEL 9G-AUTOMAT FIAT DUCATO MJ 160",CHF 81'597.–,14'568 km,Diesel,"Zollstrasse 33, 8240 Thayngen(SH)",81597,14568,1,50000 - 99999,low,47.741600036621094,8.709936141967773
1733472239-416,VW T5 California 2.0 Bi-TDI Beach Edition,CHF 25'000.–,199'800 km,Diesel,"Werkstrasse 1, 5608 Stetten",25000,199800,1,20000 - 49999,mid,47.741600036621094,8.709936141967773
1733472246-417,"PÖSSL V 640 2,3 DIESEL FIAT DUCATO PROFESSIONAL MJ 150",CHF 43'997.–,54'622 km,Diesel,"Zollstrasse 33, 8240 Thayngen(SH)",43997,54622,1,20000 - 49999,low-mid,47.741600036621094,8.709936141967773
1733472252-418,"ETRUSCO T 6900 QB 2,0 HDI DIESEL CITROEN JUMPER",CHF 59'997.–,25'019 km,Diesel,"Zollstrasse 33, 8240 Thayngen(SH)",59997,25019,1,50000 - 99999,low,47.741600036621094,8.709936141967773
1733472258-419,"CHAUSSON 648 TITANIUM VIP 2,3 DIESEL 9G-AUTOMAT FIAT DUCATO MJ 140",CHF 64'997.–,29'985 km,Diesel,"Zollstrasse 33, 8240 Thayngen(SH)",64997,29985,1,50000 - 99999,low,47.741600036621094,8.709936141967773
1733472264-420,"LAIKA X 595 R 2,3 DIESEL FIAT DUCATO MJ 130",CHF 36'797.–,79'985 km,Diesel,"Zollstrasse 33, 8240 Thayngen(SH)",36797,79985,1,20000 - 49999,low-mid,47.741600036621094,8.709936141967773
1733472271-421,"ADRIA SUN LIVING V 65 SL 2,3 DIESEL FIAT DUCATO MJ",CHF 55'997.–,42'601 km,Diesel,"Zollstrasse 33, 8240 Thayngen(SH)",55997,42601,1,50000 - 99999,low,47.741600036621094,8.709936141967773
1733472280-422,"KNAUS BOX STAR 600 DQ SOLUTION 4 2,3 DIESEL HOCHDACH H3 FIAT DUCATO MJ 150",CHF 56'997.–,38'286 km,Diesel,"Zollstrasse 33, 8240 Thayngen(SH)",56997,38286,1,50000 - 99999,low,47.741600036621094,8.709936141967773
1733472287-423,"ROLLER TEAM KRONOS 291 P 2,0 TDCI DIESEL FORD",CHF 52'997.–,19'648 km,Diesel,"Zollstrasse 33, 8240 Thayngen(SH)",52997,19648,1,50000 - 99999,low,47.741600036621094,8.709936141967773
1733472298-424,"CLEVER VANS TOUR 540 2,2 HDI DIESEL CITROEN JUMPER",CHF 45'997.–,35'586 km,Diesel,"Zollstrasse 33, 8240 Thayngen(SH)",45997,35586,1,20000 - 49999,low,47.741600036621094,8.709936141967773
1733472309-425,"FORD TRANSIT CUSTOM NUGGET WESTFALIA AUFSTELLDACH 2,0 TDCI DIESEL AUTOMAT",CHF 54'697.–,24'401 km,Diesel,"Zollstrasse 33, 8240 Thayngen(SH)",54697,24401,1,50000 - 99999,low,47.741600036621094,8.709936141967773
1733472319-426,"WEINSBERG CARABUS 631 ME EDITION FIRE 2,3 DIESEL FIAT DUCATO MULTIJET 130",CHF 48'997.–,49'985 km,Diesel,"Zollstrasse 33, 8240 Thayngen(SH)",48997,49985,1,20000 - 49999,low,47.741600036621094,8.709936141967773
1733472322-427,VW T6 California 2.0 TDI 199 Beach DSG 4m 7 Pl.,CHF 62'900.–,26'000 km,Diesel,"Delsbergerstrasse 181, 4242 Laufen",62900,26000,1,50000 - 99999,low,47.741600036621094,8.709936141967773
1733472326-428,"PÖSSL RAODCAR R 540 2,3 DIESEL FIAT DUCATO PROFESSIONAL MJ2 130",CHF 47'997.–,28'689 km,Diesel,"Zollstrasse 33, 8240 Thayngen(SH)",47997,28689,1,20000 - 49999,low,47.741600036621094,8.709936141967773
1733472330-429,"ETRUSCO CV 600 DB COMPLETE SELECTION 2,3 DIESEL FIAT DUCATO MULTIJET 140",CHF 55'997.–,29'985 km,Diesel,"Zollstrasse 33, 8240 Thayngen(SH)",55997,29985,1,50000 - 99999,low,47.741600036621094,8.709936141967773
1733472333-430,"VW T6.1 CALIFORNIA 2,0 TDI DSG 4X4 OCEAN EDITION LIBERTY",CHF 65'997.–,54'977 km,Diesel,"Zollstrasse 33, 8240 Thayngen(SH)",65997,54977,1,50000 - 99999,low-mid,47.741600036621094,8.709936141967773
1733472349-431,"VW T6.1 CALIFORNIA 2,0 TDI DSG 4X4 OCEAN EDITION LIBERTY",CHF 65'997.–,45'981 km,Diesel,"Zollstrasse 33, 8240 Thayngen(SH)",65997,45981,1,50000 - 99999,low,47.741600036621094,8.709936141967773
1733472369-432,"FORD TRANSIT CUSTOM NUGGET WESTFALIA AUFSTELLDACH 2,0 TDCI DIESEL AUTOMAT",CHF 51'997.–,43'867 km,Diesel,"Zollstrasse 33, 8240 Thayngen(SH)",51997,43867,1,50000 - 99999,low,47.741600036621094,8.709936141967773
1733472382-434,"BÜRSTNER NEXXO TIME T 569 EDITION 30 YEARS 2,0 HDI CITROEN JUMPER",CHF 52'997.–,39'663 km,Diesel,"Zollstrasse 33, 8240 Thayngen(SH)",52997,39663,1,50000 - 99999,low,47.36789321899414,8.81820297241211
1733472386-435,"ADRIA MATRIX AXESS 670 SL GT EDITION 2,3 DIESEL AUTOMAT FIAT DUCATO MJ 150",CHF 68'997.–,48'698 km,Diesel,"Zollstrasse 33, 8240 Thayngen(SH)",68997,48698,1,50000 - 99999,low,46.83207321166992,6.935480117797852
1733472392-436,"HOBBY OPTIMA PREMIUM T 65 GQ 2,3 DIESEL AUTOMAT FIAT DUCATO MJ 150",CHF 64'997.–,28'515 km,Diesel,"Zollstrasse 33, 8240 Thayngen(SH)",64997,28515,1,50000 - 99999,low,47.467018127441406,9.58243179321289
1733472398-437,"RIMOR EVO 95 PLUS 2,0 TDCI DIESEL AUTOMAT FORD",CHF 59'997.–,31'555 km,Diesel,"Zollstrasse 33, 8240 Thayngen(SH)",59997,31555,1,50000 - 99999,low,46.193580627441406,6.129368782043457
1733472404-438,"HYMER EXIS-I EX 474 2,3 DIESEL 9G-AUTOMAT FIAT DUCATO MJ 140",CHF 79'996.–,23'640 km,Diesel,"Zollstrasse 33, 8240 Thayngen(SH)",79996,23640,1,50000 - 99999,low,46.193580627441406,6.129368782043457
1733472410-439,"WEINSBERG CARASUITE 700 ME 2,3 DIESEL FIAT DUCATO MULTIJET 140",CHF 64'997.–,23'641 km,Diesel,"Zollstrasse 33, 8240 Thayngen(SH)",64997,23641,1,50000 - 99999,low,46.774803161621094,7.615665435791016
1733472416-440,"CHAUSSON KOROS 720 2,0 TDCI DIESEL FORD",CHF 54'997.–,49'985 km,Diesel,"Zollstrasse 33, 8240 Thayngen(SH)",54997,49985,1,50000 - 99999,low,47.07102584838867,7.5950236320495605
1733472423-441,"CARADO CAPRON V 132 2,3 DIESEL FIAT DUCATO MJ",CHF 46'997.–,37'661 km,Diesel,"Zollstrasse 33, 8240 Thayngen(SH)",46997,37661,1,20000 - 49999,low,47.48258972167969,8.278800010681152
1733472435-443,"CHAUSSON 747 GA WELCOME PREMIUM 2,3 DIESEL FIAT DUCATO MJ 130",CHF 59'997.–,26'652 km,Diesel,"Zollstrasse 33, 8240 Thayngen(SH)",59997,26652,1,50000 - 99999,low,47.23871994018555,8.749458312988281
1733472461-445,"RAPIDO CI CARAVANSINTERNATIONAL MAGIS 85 INTEGRAL 2,3 DIESEL FIAT DUCATO MULTIJET 130",CHF 56'997.–,27'705 km,Diesel,"Zollstrasse 33, 8240 Thayngen(SH)",56997,27705,1,50000 - 99999,low,46.924835205078125,8.018625259399414
1733472465-446,"HOBBY OPTIMA T 65 FL ONTOUR 2,2 HDI DIESEL CITROEN JUMPER",CHF 62'997.–,12'847 km,Diesel,"Zollstrasse 33, 8240 Thayngen(SH)",62997,12847,1,50000 - 99999,low,47.741600036621094,8.709936141967773
1733472469-447,"HYMER GRAND CANYON 600 2,3 DIESEL HUBDACH FIAT DUCATO MJ 150",CHF 53'997.–,39'890 km,Diesel,"Zollstrasse 33, 8240 Thayngen(SH)",53997,39890,1,50000 - 99999,low,47.29646301269531,7.931781768798828
1733472475-448,FIAT Ducato,CHF 48'900.–,38'000 km,Diesel,"Zollstrasse 10 & Waldegg 379, 3436 Zollbrück",48900,38000,1,20000 - 49999,low,46.18864440917969,7.297874450683594
1733472480-449,VW Typ 2,CHF 19'900.–,200'000 km,Benzin,"Pfäffikerstrasse 31a, 8335 Hittnau",19900,200000,0,0 - 19999,mid,47.686065673828125,8.622149467468262
1733472485-450,VW T6.1 California 2.0 TDI Ocean Liberty,CHF 61'900.–,35'500 km,Diesel,"Route de Grandcour 71, 1530 Payerne",61900,35500,1,50000 - 99999,low,46.934852600097656,8.393327713012695
1733472488-451,VW 2.0 TDI 4MOTION MULTIVAN CAMPER,CHF 25'900.–,186'000 km,Diesel,"Thalerstrasse 46a, 9424 Rheineck",25900,186000,1,20000 - 49999,mid,46.76797103881836,7.352298259735107
1733472504-453,VW T5 California 2.0 TDI Comfortline Travel,CHF 50'500.–,51'000 km,Diesel,"rue Eugène-Marziano 18, 1227 Les Acacias",50500,51000,1,50000 - 99999,low-mid,47.07444381713867,7.581071853637695
1733472510-454,DETHLEFFS XXLA 9000,CHF 169'500.–,13'500 km,Diesel,"Bernstrasse 115, 3613 Steffisburg",169500,13500,1,100000 - 199999,low,47.414920806884766,8.382509231567383
1733472513-455,MERCEDES-BENZ Marco Polo 220 d A,CHF 62'900.–,16'900 km,Diesel,"Industriestrasse 6, 3421 Lyssach",62900,16900,1,50000 - 99999,low,47.37942886352539,8.14233112335205
1733472516-456,VW T6.1 California 2.0 TDI Ocean Edition Liberty,CHF 59'500.–,29'008 km,Diesel,"Bruggerstrasse 194, 5400 Baden",59500,29008,1,50000 - 99999,low,47.272743225097656,8.43922233581543
1733472519-457,VW 2.4D Westfalia mit Hochdach,CHF 16'690.–,244'990 km,Diesel,"Johann-Renfer-Strasse 3, 2504 Biel/Bienne",16690,244990,1,0 - 19999,mid-high,47.24129867553711,7.598618030548096
1733472524-458,VW T6 California 2.0 Bi-TDI Beach Liberty 4Motion,CHF 47'900.–,109'000 km,Diesel,"Laubisrütistrasse 77, 8713 Uerikon",47900,109000,1,20000 - 49999,mid,47.04911422729492,8.27134895324707
1733472528-459,LAIKA Iveco Laika Ecovip,CHF 27'500.–,138'000 km,Diesel,"Hauptstrasse 70 A, 9105 Schönengrund",27500,138000,1,20000 - 49999,mid,46.855812072753906,8.639747619628906
1733472533-460,TOYOTA 400 Hdt Long 4.2D Buschtaxi,CHF 79'800.–,61'000 km,Diesel,"Staufmoos, 6170 Schüpfheim",79800,61000,1,50000 - 99999,low-mid,47.04475021362305,8.191388130187988
1733472536-461,"KNAUS SKY TI 700 MEG PLATINUM SELECTION 2,3 DIESEL 9G-AUTOMAT FIAT DUCATO MJ 160",CHF 67'997.–,37'312 km,Diesel,"Zollstrasse 33, 8240 Thayngen(SH)",67997,37312,1,50000 - 99999,low,47.41733932495117,9.236328125
1733472539-462,BRAVIA Swan 636 165 PS Swiss Ed.High Roof,CHF 74'900.–,20'000 km,Diesel,"untere Brühlstrasse 48, 4800 Zofingen",74900,20000,1,50000 - 99999,low,47.15397644042969,7.59208869934082
1733472546-464,VW T6.1 California 2.0 TDI Ocean 4Motion Anhängelast 2500Kg Seitenstoren und Elektrisches Hochdach  Neupreis 95840 CHF,CHF 66'900.–,42'014 km,Diesel,"Zentralstrasse 121, 8212 Neuhausen am Rheinfall",66900,42014,1,50000 - 99999,low,47.41579055786133,8.562726974487305
1733472553-466,VW T6 California 2.0 Bi-TDI Ocean BLUE,CHF 55'800.–,33'100 km,Diesel,"Kappelen 30B, 3156 Riffenmatt",55800,33100,1,50000 - 99999,low,46.344478607177734,6.943572521209717
1733472561-468,YUCON 6.0,CHF 99'900.–,12'266 km,Diesel,"Kirchbergstrasse 61, 3421 Lyssach",99900,12266,1,50000 - 99999,low,47.05141830444336,8.273253440856934
1733472565-469,VW T6 California 2.0 TDI Ocean Liberty 4Motion,CHF 51'900.–,61'500 km,Diesel,"Grubenstrasse 7, 8957 Spreitenbach",51900,61500,1,50000 - 99999,low-mid,47.19865417480469,8.108717918395996
1733472569-470,FORD 100L,CHF 10'900.–,274'000 km,Benzin,"Seetalstrasse 35, 5503 Schafisheim",10900,274000,0,0 - 19999,mid-high,47.040523529052734,8.134263038635254
1733472573-471,ITINEO 740 auf Fiat Ducato,CHF 59'800.–,17'598 km,Diesel,"Obfelderstrasse 38, 8910 Affoltern am Albis",59800,17598,1,50000 - 99999,low,47.070003509521484,7.3112287521362305
1733472586-472,MERCEDES-BENZ Sprinter 313 CDI 4x4 Automatik / Off-Road Autark Camper **Frisch ab MFK**,CHF 46'990.–,63'109 km,Diesel,"Baselstrasse 25, 4534 Flumenthal",46990,63109,1,20000 - 49999,low-mid,47.07384490966797,7.588680267333984
1733472590-473,MERCEDES-BENZ Marco Polo 250 d  4M Automat,CHF 69'500.–,32'000 km,Diesel,"Unterwilrain 16, 6014 Luzern",69500,32000,1,50000 - 99999,low,47.741600036621094,8.709936141967773
1733472593-474,FIAT Carado A464 2.3 JTD,CHF 33'900.–,44'900 km,Diesel,"Umfahrungsstrasse 9, 6467 Schattdorf",33900,44900,1,20000 - 49999,low,47.741600036621094,8.709936141967773
1733472595-475,DETHLEFFS Advantage I 7051EB,CHF 47'000.–,157'000 km,Diesel,"Eistrasse 1, 6102 Malters",47000,157000,1,20000 - 49999,mid,47.49706268310547,8.864991188049316
1733472600-476,VW T5 California 2.0 TDI Comfortline Last Edition,CHF 36'500.–,148'500 km,Diesel,"Wilerstrasse 71, 9200 Gossau SG",36500,148500,1,20000 - 49999,mid,47.00366973876953,9.525409698486328
1733472609-478,FORD Transit Autoroller,CHF 29'900.–,88'000 km,Diesel,"Forchstrasse 148, 8132 Egg bei Zürich",29900,88000,1,20000 - 49999,low-mid,47.56706237792969,8.858413696289062
1733472612-479,MERCEDES-BENZ Marco Polo 300 d 4M A,CHF 74'900.–,35'500 km,Diesel,"Hagenholzstrasse 111, 8050 Zürich",74900,35500,1,50000 - 99999,low,46.934852600097656,8.393327713012695
1733472615-480,MERCEDES-BENZ Marco Polo Activ 250 d 4M,CHF 45'999.–,123'000 km,Diesel,"Grand-rue 4, 2606 Corgémont (Biel-Bienne/BE - 13 min)",45999,123000,1,20000 - 49999,mid,46.193580627441406,6.129368782043457
1733472618-481,FORD Challenger Trigano FD4,CHF 65'500.–,11'800 km,Diesel,"Pré de l'Oie 3, 1853 Yvorne",65500,11800,1,50000 - 99999,low,47.11769485473633,7.2922821044921875
1733472626-483,NISSAN NV400 LH2 Wohnmobil,CHF 39'999.–,25'000 km,Diesel,"Luzernerstrasse 80, 6014 Luzern",39999,25000,1,20000 - 49999,low,47.65929412841797,9.12209701538086
1733472633-485,CARTHAGO Chic S-Plus,CHF 199'000.–,20'000 km,Diesel,"Mittler-Langnau 1, 6105 Schachen LU",199000,20000,1,100000 - 199999,low,47.049163818359375,9.064384460449219
1733472636-486,MERCEDES-BENZ Marco Polo 220 d Trend  4M Automat,CHF 79'000.–,16'000 km,Diesel,"Bernstrasse 11, 3250 lyss",79000,16000,1,50000 - 99999,low,47.05141830444336,8.273253440856934
1733472640-487,VW T6.1 California 2.0 TDI Ocean Liberty,CHF 65'900.–,12'000 km,Diesel,"Schachenstrasse 31, 3421 Lyssach",65900,12000,1,50000 - 99999,low,46.15753173828125,8.975666999816895
1733472644-488,"SUNLIGHT CLIFF CVE 640 ADVENTURE EDITION 2,3 DIESEL 9G-AUTOMAT FIAT DUCATO MJ 140",CHF 59'997.–,36'784 km,Diesel,"Zollstrasse 33, 8240 Thayngen(SH)",59997,36784,1,50000 - 99999,low,46.904449462890625,8.393872261047363
1733472647-489,"CHALLENGER 347 GA GRAPHITE EDITION 2,0 TDCI DIESEL AUTOMAT FORD",CHF 56'997.–,62'940 km,Diesel,"Zollstrasse 33, 8240 Thayngen(SH)",56997,62940,1,50000 - 99999,low-mid,46.904449462890625,8.393872261047363
1733472650-490,MERCEDES-BENZ Marco Polo 250 d Horizon,CHF 51'900.–,38'000 km,Diesel,"Bahnhofstrasse 7, 8353 Elgg",51900,38000,1,50000 - 99999,low,46.757205963134766,7.616790294647217
1733472660-491,VW T6.1 California 2.0 Bi-TDI Ocean Liberty 4Motion,CHF 63'200.–,94'241 km,Diesel,"Untere Industrie 2, 7304 Maienfeld",63200,94241,1,50000 - 99999,low-mid,47.06964874267578,8.319802284240723
1733472664-492,ADRIA Coral S680 SPL,CHF 29'900.–,108'000 km,Diesel,"Rte de Porrentruy 86, 2800 Delémont",29900,108000,1,20000 - 49999,mid,46.942352294921875,8.272114753723145
1733472669-493,VW T6.1 California 2.0 TDI Ocean Edition 4Motion,CHF 76'800.–,20'900 km,Diesel,"Eichäckerstrasse 1, 8500 Frauenfeld",76800,20900,1,50000 - 99999,low,47.415218353271484,7.844275951385498
1733472672-494,VW T6 California 2.0 TDI Ocean Liberty 4Motion,CHF 51'900.–,75'000 km,Diesel,"Aawasserstrasse 12, 6383 Dallenwil",51900,75000,1,50000 - 99999,low-mid,46.934852600097656,8.393327713012695
1733472675-495,VW T6.1 California 2.0 TDI Ocean Liberty,CHF 52'900.–,41'000 km,Diesel,"rue Eugène-Marziano 18, 1227 Les Acacias",52900,41000,1,50000 - 99999,low,47.312950134277344,7.786300182342529
1733472681-496,MERCEDES-BENZ Marco Polo 250 d  4M Automat,CHF 87'900.–,12'500 km,Diesel,"Alte Bernstrasse 34, 2558 Aegerten",87900,12500,1,50000 - 99999,low,47.152587890625,8.39490032196045
1733472684-497,VW T6 California 2.0 Bi-TDI Ocean * BULLI *,CHF 44'990.–,119'840 km,Diesel,"Hauptstrasse 8, 9434 Au / Rheintal / SG",44990,119840,1,20000 - 49999,mid,47.45001220703125,7.881074905395508
1733472688-498,FIAT Fullback mit DUX Kabine,CHF 69'990.–,121'500 km,Diesel,"Schützenstrasse 4, 8274 Tägerwilen",69990,121500,1,50000 - 99999,mid,47.0927734375,8.318682670593262
1733472692-499,RENAULT Trafic Seabird 2.9 t L1 H1 2.5 dCi 146 DPF,CHF 12'900.–,301'000 km,Diesel,"Route Principale 9, 2743 Eschert - Moutier",12900,301000,1,0 - 19999,mid-high,47.31846237182617,9.172804832458496
1733472696-500,RIMOR Rimor Seal 50,CHF 59'900.–,13'000 km,Diesel,"Buchholz 44, 8750 Glarus",59900,13000,1,50000 - 99999,low,47.096275329589844,6.81933069229126
1733472700-501,VW T6 California 2.0 Bi-TDI Ocean 4Motion,CHF 44'999.–,131'000 km,Diesel,"Luzernerstrasse 80, 6014 Luzern",44999,131000,1,20000 - 49999,mid,46.26874542236328,6.959034442901611
1733472703-502,RIMOR Evo5,CHF 56'900.–,22'000 km,Diesel,"Via Stazione 2, 6592 S.Antonino",56900,22000,1,50000 - 99999,low,47.152587890625,8.39490032196045
1733472707-503,VW T6.1 California 2.0 Bi-TDI Ocean Liberty 4Motion,CHF 64'800.–,34'800 km,Diesel,"Alpenstrasse 1, 6386 Wolfenschiessen",64800,34800,1,50000 - 99999,low,47.18511199951172,7.399871349334717
1733472711-504,VW T6.1 California 2.0 TDI Beach Liberty Spirit,CHF 52'800.–,101'200 km,Diesel,"Alpenstrasse 1, 6386 Wolfenschiessen",52800,101200,1,50000 - 99999,mid,47.741600036621094,8.709936141967773
1733472714-505,PÖSSL Summit 640,CHF 54'900.–,62'000 km,Diesel,"Florastrasse 4, 3600 Thun",54900,62000,1,50000 - 99999,low-mid,47.741600036621094,8.709936141967773
1733472717-506,VW Caddy Maxi 1.5 TSI California,CHF 33'900.–,66'345 km,Benzin,"Luzernerstrasse 84, 6030 Ebikon",33900,66345,0,20000 - 49999,low-mid,47.741600036621094,8.709936141967773
1733472722-508,VW T6.1 California Ocean Lib 2.0 TDI DSG 150PS,CHF 65'500.–,12'027 km,Diesel,"Weiermatt 1, 4446 Buckten",65500,12027,1,50000 - 99999,low,46.2806282043457,6.924017906188965
1733472726-509,VW T6 California 2.0 TDI Beach 4Motion,CHF 43'900.–,128'500 km,Diesel,"Aawasserstrasse 12, 6383 Dallenwil",43900,128500,1,20000 - 49999,mid,47.514400482177734,8.01496410369873
1733472729-510,MERCEDES-BENZ Marco Polo 300 d 4M Automat,CHF 84'500.–,17'500 km,Diesel,"Industriestrasse 23, 4623 Neuendorf",84500,17500,1,50000 - 99999,low,47.055057525634766,8.085668563842773
1733472735-511,VW GEOVAN L Induktion - Solar - Warmwasser - Dusche - Lithium - grosses Bett,CHF 41'500.–,68'500 km,Diesel,"Schwettistrasse 1A, 6042 Dietwil",41500,68500,1,20000 - 49999,low-mid,47.447872161865234,9.134964942932129
1733472740-512,VW T6 California 2.0 TDI DSG Beach,CHF 41'800.–,99'800 km,Diesel,"Gässliacker 13, 4492 Tecknau",41800,99800,1,20000 - 49999,low-mid,47.33076095581055,7.837788105010986
1733472744-513,VW T5 California 2.0 TDI Comfortline 4Motion,CHF 31'000.–,152'966 km,Diesel,"Buholzstrasse 40, 6032 Emmen",31000,152966,1,20000 - 49999,mid,47.33076095581055,7.837788105010986
1733472747-514,STEYR 12 S 23 4x4,CHF 134'800.–,44'000 km,Diesel,"Dorf 10, 9127 St. Peterzell",134800,44000,1,100000 - 199999,low,47.055057525634766,8.085668563842773
1733472753-516,VW T6 California 2.0 Bi-TDI Ocean Liberty 4Motion,CHF 62'800.–,52'000 km,Diesel,"Avenue Léopold-Robert 117, 2300 La Chaux-de-Fonds",62800,52000,1,50000 - 99999,low-mid,47.055057525634766,8.085668563842773
1733472760-518,VW GEOVAN M - Allrad - Bestzustand,CHF 41'500.–,81'500 km,Diesel,"Schwettistrasse 1A, 6042 Dietwil",41500,81500,1,20000 - 49999,low-mid,47.741600036621094,8.709936141967773
1733472766-519,XGO 95G,CHF 54'555.–,34'140 km,Diesel,"Archstrasse 36, 2540 Grenchen",54555,34140,1,50000 - 99999,low,47.741600036621094,8.709936141967773
1733472769-520,"DETHLEFFS EDITION SILVER LINE T 7056 2,3 DIESEL FIAT DUCATO MJ 140",CHF 62'997.–,28'018 km,Diesel,"Zollstrasse 33, 8240 Thayngen(SH)",62997,28018,1,50000 - 99999,low,47.152587890625,8.39490032196045
1733472773-521,"ADRIA MATRIX 600 SL PLUS 2,3 DIESEL FIAT DUCATO MJ 160",CHF 69'997.–,37'904 km,Diesel,"Zollstrasse 33, 8240 Thayngen(SH)",69997,37904,1,50000 - 99999,low,47.64430236816406,9.194437026977539
1733472783-522,"FORD TRANSIT CUSTOM NUGGET WESTFALIA HOCHDACH H3 2,2 TDCI DIESEL",CHF 49'997.–,65'986 km,Diesel,"Zollstrasse 33, 8240 Thayngen(SH)",49997,65986,1,20000 - 49999,low-mid,47.415218353271484,7.844275951385498
1733472790-523,RENAULT Trafic 2.9 t L1 H1 1.6 dCi 114 Camper,CHF 23'600.–,122'200 km,Diesel,"Zürcherstrasse 34 und Messenriet 15, 8500 Frauenfeld",23600,122200,1,20000 - 49999,mid,47.15180969238281,8.165165901184082
1733472796-524,MERCEDES-BENZ Viano 3.0 CDI Blue Eff. Marco Polo Edition A,CHF 33'900.–,159'000 km,Diesel,"Ch. de la Millière 3a, 1893 Muraz (Collombey)",33900,159000,1,20000 - 49999,mid,47.152587890625,8.39490032196045
1733472801-525,VW T6 California 3000 2.0 TDI 150 Beach Liberty,CHF 43'900.–,33'652 km,Diesel,"Hauptstrasse 142, 5072 Oeschgen",43900,33652,1,20000 - 49999,low,47.00950241088867,8.619601249694824
1733472807-526,OPEL Zafira Life M FLEX erhöhte Last 2.0 CDTI 177 CROSSCAMP,CHF 58'000.–,29'900 km,Diesel,"Hackenrüti 10, 6110 Wolhusen",58000,29900,1,50000 - 99999,low,47.741600036621094,8.709936141967773
1733472813-527,LAND ROVER Discovery 2.7TD V6,CHF 26'900.–,125'000 km,Diesel,"Henauerstrasse 44, 9244 Niederuzwil",26900,125000,1,20000 - 49999,mid,47.152587890625,8.39490032196045
1733472823-529,VW T6.1 California TDI Beach Liberty Spirit DSG7,CHF 64'300.–,11'200 km,Diesel,"Solothurnerstrasse 25, 4614 Hägendorf",64300,11200,1,50000 - 99999,low,47.387718200683594,8.494241714477539
1733472829-530,OPEL Movano Flex 541 3.5t L2 H2 2.2 TD 165 Heavy CROSSCAMP,CHF 59'820.–,18'000 km,Diesel,"Hackenrüti 10, 6110 Wolhusen",59820,18000,1,50000 - 99999,low,47.35773849487305,7.984447479248047
1733472855-531,CROSSCAMP Opel Zafira Life M FLEX erhöhte Last 2.0 CDTI 177,CHF 58'000.–,29'900 km,Diesel,"Hackenrüti 10, 6110 Wolhusen",58000,29900,1,50000 - 99999,low,47.227630615234375,8.866288185119629
1733472860-532,CROSSCAMP Opel Movano Flex 541 3.5t L2 H2 2.2 TD 165 Heavy,CHF 59'820.–,18'000 km,Diesel,"Hackenrüti 10, 6110 Wolhusen",59820,18000,1,50000 - 99999,low,47.35371780395508,7.931101322174072
1733472865-533,"MERCEDES-BENZ Sprinter VANPOWER Model: Infinity - Luxuriöses Wohnmobil für 2 Personen, Professioneller Ausbau alles NEU",CHF 83'900.–,37'950 km,Diesel,"Eichholzweg 18, 3123 Belp",83900,37950,1,50000 - 99999,low,47.45001220703125,7.881074905395508
1733472872-535,"VW T5 CALIFORNIA 2,0 TDI DSG COMFORTLINE",CHF 43'997.–,82'762 km,Diesel,"Zollstrasse 33, 8240 Thayngen(SH)",43997,82762,1,20000 - 49999,low-mid,47.46270751953125,9.02379035949707
1733472879-536,VW GEOVAN M *NEUES MODEL*,CHF 34'950.–,87'560 km,Diesel,"Schwettistrasse 1A, 6042 Dietwil",34950,87560,1,20000 - 49999,low-mid,47.547142028808594,7.5511474609375
1733472884-537,MERCEDES-BENZ Marco Polo 220 d Trend L,CHF 63'800.–,28'000 km,Diesel,"Sonnenwiesenstrasse 17, 8280 Kreuzlingen",63800,28000,1,50000 - 99999,low,47.08992385864258,8.253633499145508
1733472889-538,VW Grand California 600 2.0 TDI 177PS,CHF 53'900.–,23'967 km,Diesel,"Weiermatt 1, 4446 Buckten",53900,23967,1,50000 - 99999,low,47.26155090332031,7.946728229522705
1733472895-539,FIAT Knaus 3.0,CHF 37'990.–,77'600 km,Diesel,"Seestrasse 30, 6205 Eich",37990,77600,1,20000 - 49999,low-mid,46.597469329833984,6.542710781097412
1733472901-540,VW GEOVAN XL *neues MODEL*,CHF 51'500.–,49'985 km,Diesel,"Schwettistrasse 1A, 6042 Dietwil",51500,49985,1,50000 - 99999,low,47.450294494628906,9.641934394836426
1733472905-541,VW T6.1 California 2.0 TDI Beach,CHF 84'900.–,27'600 km,Diesel,"Seewenstrasse 28, 6440 Brunnen",84900,27600,1,50000 - 99999,low,47.536373138427734,8.730512619018555
1733472910-542,"VW T6.1 CALIFORNIA 2,0 TDI DSG 4X4 OCEAN LIBERTY",CHF 65'997.–,47'802 km,Diesel,"Zollstrasse 33, 8240 Thayngen(SH)",65997,47802,1,50000 - 99999,low,46.97899627685547,7.4851155281066895
1733472915-543,VW GEOVAN M,CHF 21'500.–,110'000 km,Benzin,"Schwettistrasse 1A, 6042 Dietwil",21500,110000,0,20000 - 49999,mid,46.3544807434082,6.932366371154785
1733472921-544,PEUGEOT Bravia SWAN 599  2.2 BlueHDI 165PS,CHF 54'900.–,23'002 km,Diesel,"St. Gallerstrasse 33, 8352 Räterschen - bei Winterthur",54900,23002,1,50000 - 99999,low,47.152587890625,8.39490032196045
1733472925-545,FORD Nugget Westfalia Hochdach,CHF 43'900.–,80'350 km,Diesel,"Albulastrasse 37, 8048 Zürich",43900,80350,1,20000 - 49999,low-mid,47.45183181762695,8.701164245605469
1733472929-546,VW T6 California 2.0 TDI Ocean Liberty,CHF 65'000.–,29'900 km,Diesel,"Herrenmattstrasse 28, 4658 Däniken",65000,29900,1,50000 - 99999,low,46.93461227416992,7.489782810211182
1733472932-547,RENAULT Trafic Camper L1H1 2.8t dCi 120 ***Aufstelldach***,CHF 42'800.–,22'000 km,Diesel,"Buechstrasse 19, 8645 Jona",42800,22000,1,20000 - 49999,low,46.60664749145508,7.032050609588623
1733472937-548,FIAT PILOTE MS35/EB4,CHF 44'900.–,29'200 km,Diesel,"Niederämterstrasse 11, 4657 Dulliken",44900,29200,1,20000 - 49999,low,46.251888275146484,6.946492671966553
1733472945-549,MERCEDES-BENZ Marco Polo Activ 250 d 4M,CHF 52'800.–,51'000 km,Diesel,"Gässliacker 13, 4492 Tecknau",52800,51000,1,50000 - 99999,low-mid,47.38456344604492,8.485977172851562
1733472953-550,VW T5 California 2.5L,CHF 21'900.–,266'000 km,Diesel,"Route de la Comba 2, 1680 Romont",21900,266000,1,20000 - 49999,mid-high,46.94354248046875,7.448245525360107
1733472967-551,VW T5 California 2.0 Bi-TDI Beach Edition 4Motion,CHF 44'990.–,66'000 km,Diesel,"Lenzbüel 4, 8370 Sirnach",44990,66000,1,20000 - 49999,low-mid,47.11505889892578,8.60737133026123
1733472970-552,VW T6 California 2.0 TDI Beach Liberty,CHF 43'900.–,113'000 km,Diesel,"Binningerstrasse 112, 4123 Allschwil",43900,113000,1,20000 - 49999,mid,47.741600036621094,8.709936141967773
1733472973-553,VW T6.1 California 2.0 TDI Beach Liberty Anhängerkupplung I Standheizung,CHF 47'800.–,116'000 km,Diesel,"Buzibachstrasse 47, 6023 Rothenburg",47800,116000,1,20000 - 49999,mid,47.741600036621094,8.709936141967773
1733472977-554,VW Caddy Maxi 2.0 TDI Ca DSG,CHF 36'500.–,22'900 km,Diesel,"Hausmattweg 1, 4805 Brittnau",36500,22900,1,20000 - 49999,low,47.31313705444336,7.93761682510376
1733472983-555,CHALLENGER FD1,CHF 19'900.–,55'000 km,Diesel,"Route de Sullens 9, 1303 Penthaz",19900,55000,1,0 - 19999,low-mid,47.10837173461914,8.34425163269043
1733472991-557,VW Maxi 1.0 TSI,CHF 32'900.–,91'000 km,Benzin,8472 Seuzach,32900,91000,0,20000 - 49999,low-mid,46.95763397216797,7.452798843383789
1733472995-558,VW T4,CHF 22'000.–,69'000 km,Benzin,3063 Ittigen,22000,69000,0,20000 - 49999,low-mid,47.5069580078125,9.270942687988281
1733473000-559,VW T6.1 California 2.0 Bi-TDI Ocean Edition Liberty 4Motion,CHF 69'900.–,25'000 km,Diesel,"Route du Simplon 32, 1852 Roche VD",69900,25000,1,50000 - 99999,low,47.36394500732422,9.074725151062012
1733473004-560,VW GEOVAN M - Induktion - Aussendusche - Solarsystem - Lithiumbatterie - grosses Bett,CHF 20'000.–,115'000 km,Benzin,"Schwettistrasse 1A, 6042 Dietwil",20000,115000,0,0 - 19999,mid,47.741600036621094,8.709936141967773
1733473009-561,FIAT 2.5 TD Hoby,CHF 15'490.–,107'000 km,Diesel,8310 Kemptthal,15490,107000,1,0 - 19999,mid,46.78022766113281,7.160383701324463
1733473014-562,CARTHAGO Chic C-Line 4.8 i,CHF 89'900.–,15'900 km,Diesel,3074 Muri,89900,15900,1,50000 - 99999,low,46.224342346191406,7.311820983886719
1733473017-563,FIAT Ducato,CHF 10'000.–,52'000 km,Diesel,1635 La Tour de Trême,10000,52000,1,0 - 19999,low-mid,47.3072509765625,8.82162094116211
1733473022-564,FIAT Ducato,CHF 5'000.–,130'000 km,Diesel,1870 Monthey,5000,130000,1,0 - 19999,mid,47.05475997924805,9.414716720581055
1733473026-565,VW T4,CHF 15'000.–,127'000 km,Diesel,8048 Zürich,15000,127000,1,0 - 19999,mid,47.350502014160156,8.052599906921387
1733473030-566,EURA MOBIL EURA MOBIL Sport 665 HB,CHF 23'450.–,145'000 km,Diesel,3005 Bern,23450,145000,1,20000 - 49999,mid,47.25289535522461,9.001060485839844
1733473033-567,VW T5 California 2.0 Bi-TDI Comfortline Travel 4Motion,CHF 35'500.–,147'500 km,Diesel,6314 Unterägeri,35500,147500,1,20000 - 49999,mid,47.44962692260742,7.733177185058594
1733473036-568,"LAIKA ECOVIP 329 2,3 DIESEL FIAT DUCATO MJ2 150",CHF 56'997.–,26'185 km,Diesel,"Zollstrasse 33, 8240 Thayngen(SH)",56997,26185,1,50000 - 99999,low,46.05215835571289,8.927762031555176
1733473040-569,MERCEDES-BENZ Marco Polo Viano 2.2 CDI 4M Aut.,CHF 39'997.–,99'985 km,Diesel,"Zollstrasse 33, 8240 Thayngen(SH)",39997,99985,1,20000 - 49999,low-mid,47.42990493774414,8.642165184020996
1733473044-570,VW T6 California 2.0 TDI Beach Liberty,CHF 49'900.–,54'900 km,Diesel,"Bifang 8, 4665 Oftringen",49900,54900,1,20000 - 49999,low-mid,47.08238983154297,7.3673095703125
1733473051-571,TOYOTA PROACE 1.5 Firenze L1 by Almo Campers,CHF 59'900.–,20'400 km,Diesel,"Am Sagenbach 14, 6033 Buchrain",59900,20400,1,50000 - 99999,low,47.50355529785156,8.72974967956543
1733473054-572,PÖSSL GLOBECAR 640 mit Einzelbett! ab MFK! ab Service!,CHF 38'890.–,88'999 km,Diesel,"Johann-Renfer-Strasse 3, 2504 Biel/Bienne",38890,88999,1,20000 - 49999,low-mid,47.22198486328125,9.052789688110352
1733473058-573,VW T2,CHF 55'000.–,160'000 km,Benzin,3014 Bern,55000,160000,0,50000 - 99999,mid,47.4791374206543,7.730919361114502
1733473061-574,TOYOTA Hiace,CHF 6'900.–,79'600 km,Benzin,9220 Bischofszell,6900,79600,0,0 - 19999,low-mid,46.73295211791992,8.19924259185791
1733473065-575,"DETHLEFFS Trend A 6977, Fiat Ducato 2.3MJT 150PS",CHF 49'900.–,23'500 km,Diesel,"Hofackerstrasse 7, 9606 Bütschwil",49900,23500,1,20000 - 49999,low,47.19585418701172,8.449189186096191
1733473069-576,"PÖSSL SUMMIT 540 SHINE 2,2 HDI CITROEN JUMPER",CHF 56'997.–,18'694 km,Diesel,"Zollstrasse 33, 8240 Thayngen(SH)",56997,18694,1,50000 - 99999,low,46.25404357910156,7.422774314880371
1733473071-577,FORD Nugget,CHF 49'900.–,45'000 km,Diesel,1723 Marly,49900,45000,1,20000 - 49999,low,45.995521545410156,8.861557006835938
1733473074-578,VW T6.1 California 2.0 Bi-TDI Ocean Liberty 4Motion,CHF 75'900.–,33'250 km,Diesel,"Route des Peupliers 14, 1964 Conthey",75900,33250,1,50000 - 99999,low,47.434837341308594,8.130186080932617
1733473076-579,VW T6.1 California 2.0 Bi-TDI Ocean Edition Liberty,CHF 59'000.–,46'500 km,Diesel,8340 Hinwil,59000,46500,1,50000 - 99999,low,47.19585418701172,8.449189186096191
1733473082-580,MORELO,CHF 220'000.–,20'000 km,Diesel,8887 Mels,220000,20000,1,200000 - 499999,low,46.03166198730469,8.980022430419922
1733473085-581,VW T6.1 California 2.0 TDI Ocean Edition Liberty,CHF 74'900.–,13'500 km,Diesel,"Industriestrasse 39, 5036 Oberentfelden",74900,13500,1,50000 - 99999,low,46.78022766113281,7.160383701324463
1733473089-582,CARTHAGO Chic C-Line I 4.8,CHF 43'900.–,170'270 km,Diesel,"Breitenstrasse 1, 8725 Gebertingen",43900,170270,1,20000 - 49999,mid,47.51038360595703,8.029332160949707
1733473091-583,VW T6 California 2.0 TDI Ocean Liberty,CHF 44'900.–,122'000 km,Diesel,4416 Bubendorf,44900,122000,1,20000 - 49999,mid,47.741600036621094,8.709936141967773
1733473094-584,ADRIA SCi700,CHF 53'000.–,32'000 km,Diesel,6930 Bedano,53000,32000,1,50000 - 99999,low,47.46751022338867,7.860188961029053
1733473123-590,VW T6.1 California 2.0 TDI Beach,CHF 54'500.–,66'000 km,Diesel,8303 Bassersdorf,54500,66000,1,50000 - 99999,low-mid,46.65927505493164,6.602917194366455
1733473134-591,MAN 18.402,CHF 83'000.–,230'000 km,Diesel,3251 Wengi,83000,230000,1,50000 - 99999,mid-high,47.53417205810547,8.284839630126953
1733473139-592,PEUGEOT,CHF 20'000.–,68'597 km,Benzin,8400 Winterthur,20000,68597,0,0 - 19999,low-mid,47.32930374145508,7.16263484954834
1733473155-595,VW California Beach,CHF 49'500.–,99'820 km,Diesel,4410 Liestal,49500,99820,1,20000 - 49999,low-mid,47.548492431640625,9.371267318725586
1733473160-596,VW T5,CHF 39'990.–,133'000 km,Diesel,6085 Hasliberg,39990,133000,1,20000 - 49999,mid,47.548492431640625,9.371267318725586
1733473166-597,FIAT Ducato Knaus 2.5 JTDI - 6 Personen Zul -2 x Drehstuhl -MFK Service neu,CHF 15'900.–,95'000 km,Diesel,6330 Cham,15900,95000,1,0 - 19999,low-mid,47.11965560913086,7.325146675109863
1733473177-599,FORD Tec,CHF 28'000.–,55'000 km,Diesel,6986 Curio,28000,55000,1,20000 - 49999,low-mid,46.79905700683594,7.602220058441162
1733473186-600,MERCEDES-BENZ 314 CDI,CHF 25'000.–,130'000 km,Diesel,5108 Oberflachs,25000,130000,1,20000 - 49999,mid,46.79380798339844,6.610972881317139
1733473207-605,VW T6.1 California 2.0 Bi-TDI Beach Edit. 4Motion,CHF 79'900.–,32'500 km,Diesel,5070 Frick,79900,32500,1,50000 - 99999,low,46.94688034057617,6.838715076446533
1733473211-606,"BAVARIA K 600 G 2,3 DIESEL HUBDACH FIAT DUCATO MJ 130",CHF 53'997.–,39'985 km,Diesel,"Zollstrasse 33, 8240 Thayngen(SH)",53997,39985,1,50000 - 99999,low,46.582515716552734,7.65067195892334
1733473217-608,IVECO 4x4 Camper,CHF 38'700.–,45'000 km,Diesel,"Dorf 10, 9127 St. Peterzell",38700,45000,1,20000 - 49999,low,47.42103958129883,7.541443347930908
1733473220-609,SUNLIGHT Adventure V 69,CHF 50'900.–,24'000 km,Diesel,3940 Steg VS,50900,24000,1,50000 - 99999,low,47.741600036621094,8.709936141967773
1733473232-612,VW T6 California 2.0 TDI Beach Liberty,CHF 26'500.–,242'000 km,Diesel,4143 Dornach,26500,242000,1,20000 - 49999,mid-high,47.25289535522461,9.001060485839844
1733473237-614,DODGE COBRA  Sportsman B300,CHF 17'900.–,107'250 km,Benzin,1611 Le Crêt-près-Semsales,17900,107250,0,0 - 19999,mid,46.74116516113281,7.659372806549072
1733473240-615,VW T6.1 California 2.0 TDI Beach Edition Spirit 4Motion,CHF 67'000.–,35'000 km,Diesel,1376 Goumoens,67000,35000,1,50000 - 99999,low,47.69285202026367,8.623772621154785
1733473243-616,DETHLEFFS Advantage T7051,CHF 49'900.–,67'000 km,Diesel,5304 Endingen,49900,67000,1,20000 - 49999,low-mid,46.75131607055664,7.180769443511963
1733473246-617,HYMER B564,CHF 18'000.–,186'500 km,Diesel,2855 Glovelier,18000,186500,1,0 - 19999,mid,47.56113815307617,9.13205337524414
1733473248-618,MERCEDES-BENZ Marco Polo 250 d  4M Automat,CHF 59'900.–,50'000 km,Diesel,5234 Villigen,59900,50000,1,50000 - 99999,low,47.54872131347656,9.308004379272461
1733473258-620,KARMANN Dexter 595,CHF 54'980.–,29'850 km,Diesel,"Romanshornerstrasse 133, 9322 Egnach",54980,29850,1,50000 - 99999,low,47.1522331237793,8.230500221252441
1733473264-621,PÖSSL Roadcamp R,CHF 58'980.–,25'516 km,Diesel,"Romanshornerstrasse 133, 9322 Egnach",58980,25516,1,50000 - 99999,low,47.004615783691406,7.807994842529297
1733473267-622,FIAT Womo integriert Adriatec 630 heckbett MFK,CHF 16'400.–,81'000 km,Diesel,2556 Schwadernau,16400,81000,1,0 - 19999,low-mid,47.41093826293945,8.445731163024902
1733473270-623,PEUGEOT Expert Service Camper 140 AT 2.5T AHK,CHF 37'200.–,19'800 km,Diesel,"Hauptstrasse 9, 5212 Hausen bei Brugg",37200,19800,1,20000 - 49999,low,47.56113815307617,9.13205337524414
1733473274-624,CITROEN JUMPY Tiny Camper,CHF 7'999.–,204'500 km,Diesel,"Winterhaldenstrasse 20, 3627 Heimberg",7999,204500,1,0 - 19999,mid-high,47.52974319458008,7.613723278045654
1733473279-625,LAIKA Cosmos 909 E,CHF 75'000.–,12'000 km,Diesel,1442 Montagny,75000,12000,1,50000 - 99999,low,47.566158294677734,7.5871500968933105
1733473282-626,FIAT Fiat Ducato 2.3 Mjet,CHF 54'489.–,78'329 km,Diesel,"Grenzstrasse, 8107 Dällikon",54489,78329,1,50000 - 99999,low-mid,46.17378616333008,6.068464279174805
1733473285-627,FIAT Knaus Wohnmobil,CHF 9'000.–,120'000 km,Diesel,8600 Dübendorf,9000,120000,1,0 - 19999,mid,47.3612174987793,7.31329870223999
1733473298-630,CHAUSSON 747GA Welcome,CHF 51'000.–,30'000 km,Diesel,"Rte de Boudry 24, 2016 Cortaillod",51000,30000,1,50000 - 99999,low,47.10284423828125,8.376439094543457
1733473315-632,VW T6 California 2.0 TDI Coast,CHF 54'000.–,78'000 km,Diesel,3714 Frutigen,54000,78000,1,50000 - 99999,low-mid,46.534976959228516,6.548501491546631
1733473318-633,VW Westfalia Joker,CHF 44'900.–,107'000 km,Benzin,9497 Triesenberg,44900,107000,0,20000 - 49999,mid,47.19559860229492,7.415706634521484
1733473321-634,VW T6,CHF 29'000.–,170'000 km,Diesel,4225 Brislach,29000,170000,1,20000 - 49999,mid,47.741600036621094,8.709936141967773
1733473326-635,"CARADO CAPRON A 366 2,3 DIESEL FIAT DUCATO MJ 130",CHF 37'997.–,59'395 km,Diesel,"Zollstrasse 33, 8240 Thayngen(SH)",37997,59395,1,20000 - 49999,low-mid,47.41579055786133,8.562726974487305
1733473329-636,VW Caddy 1.5 TSI California Spirit,CHF 28'900.–,43'000 km,Benzin,"Rte de Porrentruy 86, 2800 Delémont",28900,43000,0,20000 - 49999,low,47.09998321533203,8.672536849975586
